district,address,complete_address,gcj02_lng,gcj02_lat,wgs84_lng,wgs84_lat,street_level
浦东新区,张东路2281弄,上海市浦东新区张东路2281弄,121.63742,31.201487,121.6331938,31.20367194,张江镇
浦东新区,临江村西新队罗汉松,上海市浦东新区罗汉松,121.4818,31.12607,121.477313,31.12808759,三林镇
浦东新区,临江村丁家队丁家宅,上海市浦东新区丁家宅,121.609684,31.18105,121.6054857,31.18327329,张江镇
浦东新区,浦电路221号,上海市浦东新区浦电路221号,121.523775,31.218517,121.5194289,31.22061106,潍坊新村街道
浦东新区,龚路支路473弄,上海市浦东新区龚路支路473弄,121.687927,31.264253,121.6836037,31.26631826,曹路镇
浦东新区,繁荣东路159弄,上海市浦东新区繁荣东路159弄,121.585843,31.107723,121.5816457,31.10998515,周浦镇
浦东新区,建新村,上海市浦东新区建新村,121.67628,31.294747,121.6719761,31.29682139,曹路镇
浦东新区,新川路709弄,上海市浦东新区新川路709弄,121.69209,31.190702,121.6877654,31.19279398,川沙新镇
浦东新区,瑞阳路81弄,上海市浦东新区瑞阳路81弄,121.588456,31.098891,121.5842614,31.10115926,周浦镇
浦东新区,下南路500弄,上海市浦东新区下南路500弄,121.539027,31.172119,121.5347331,31.17427556,北蔡镇
浦东新区,年家浜路461弄,上海市浦东新区年家浜路461弄,121.571239,31.112385,121.567024,31.1146321,周浦镇
浦东新区,利津路1313弄,上海市浦东新区利津路1313弄,121.592683,31.281026,121.5884758,31.28320583,浦兴路街道
浦东新区,千汇路198弄,上海市浦东新区千汇路198弄,121.769555,31.105503,121.7652036,31.10758895,祝桥镇
浦东新区,张江诸家宅,上海市浦东新区张江诸家宅,121.549336,31.218182,121.5450667,31.22033892,花木街道
浦东新区,民耀路227弄,上海市浦东新区民耀路227弄,121.654274,31.272719,121.6500141,31.27484383,曹路镇
浦东新区,上川路620号,上海市浦东新区上川路620号,121.648126,31.2738,121.6438769,31.27593511,曹路镇
浦东新区,瑞安路700弄,上海市浦东新区瑞安路700弄,121.601315,31.091565,121.5971256,31.09383892,周浦镇
浦东新区,海阳路1001弄,上海市浦东新区海阳路1001弄,121.504745,31.158836,121.500337,31.16090435,三林镇
浦东新区,新环西路27号,上海市浦东新区新环西路|27号,121.639682,31.015632,121.6354679,31.01791521,新场镇
浦东新区,东书房路560弄,上海市浦东新区东书房路560弄,121.534836,31.161298,121.5305304,31.16344982,三林镇
浦东新区,沪东新村,上海市浦东新区沪东新村,121.582324,31.271033,121.5781101,31.27321233,沪东新村街道
浦东新区,妙境北路323号,上海市浦东新区妙境北路323号,121.687104,31.204546,121.6827872,31.20664012,唐镇
浦东新区,南塘村顾家宅,上海市浦东新区南塘村,121.5682,31.339076,121.5639612,31.34121485,高桥镇
浦东新区,靖海南路567弄,上海市浦东新区靖海南路567弄,121.769591,31.033008,121.7652457,31.03513527,惠南镇
浦东新区,潍坊七村,上海市浦东新区坊七村,121.521862,31.224513,121.5175089,31.2265989,潍坊新村街道
浦东新区,银冬路568号,上海市浦东新区银冬路568号,121.635976,31.205075,121.6317516,31.20726027,张江镇
浦东新区,江绣路633弄,上海市浦东新区江绣路633弄,121.739048,31.168565,121.7346757,31.1706128,祝桥镇
浦东新区,国展路1776号工地生活区,上海市黄浦区工地生活区,121.490505,31.20047,121.4860422,31.20247465,半淞园路街道
浦东新区,沈家弄路801弄,上海市浦东新区801弄,121.550472,31.236543,121.5462041,31.2386937,洋泾街道
浦东新区,鹏飞路411弄,上海市浦东新区鹏飞路411弄,121.556073,31.171023,121.551824,31.1732162,北蔡镇
浦东新区,航鹤路1858弄,上海市浦东新区航鹤路1858弄,121.584491,31.050021,121.5802973,31.05231503,航头镇
浦东新区,中界村陈家队陈家宅,上海市浦东新区中界村陈家队陈家宅,121.566124,31.192456,121.5618938,31.19465457,北蔡镇
浦东新区,卫行村朱家队朱家宅,上海市浦东新区卫行村朱家队朱家宅,121.582983,31.16147,121.5787788,31.16370165,北蔡镇
浦东新区,浦电路149弄,上海市浦东新区浦电路149弄,121.521332,31.217907,121.5169776,31.21999452,潍坊新村街道
浦东新区,一心村,上海市浦东新区一心村,121.682249,31.243624,121.677938,31.24570882,唐镇
浦东新区,洪山路1889弄,上海市浦东新区洪山路1889弄,121.511258,31.15132,121.506874,31.15341168,三林镇
浦东新区,苗圃路400弄,上海市浦东新区苗圃路400弄,121.550179,31.239007,121.5459102,31.24115598,洋泾街道
浦东新区,莲振路269号,上海市浦东新区莲振路269号,121.567856,31.16797,121.5636309,31.17018327,北蔡镇
浦东新区,上南路3827弄,上海市浦东新区上南路3827弄,121.506756,31.151746,121.5023558,31.15382407,三林镇
浦东新区,云山路1415弄,上海市浦东新区云山路,121.574829,31.24597,121.5706082,31.24815385,金杨新村街道
浦东新区,康沈路465弄,上海市浦东新区康沈路465弄,121.571366,31.139676,121.567149,31.14190847,康桥镇
浦东新区,杨思路502弄,上海市浦东新区杨思路502弄,121.495103,31.160603,121.49066,31.16264146,三林镇
浦东新区,华夏二路1255弄,上海市浦东新区华夏二路1255弄,121.691134,31.17602,121.6868124,31.17812104,川沙新镇
浦东新区,关岳路181弄,上海市浦东新区关岳路181弄,121.586652,31.120165,121.5824544,31.12242073,周浦镇
浦东新区,长岛路1560弄,上海市浦东新区长岛路1560弄,121.600996,31.264129,121.5967923,31.26631624,浦兴路街道
浦东新区,金桥路530弄,上海市浦东新区金桥路530弄,121.574344,31.26157,121.5701213,31.26374648,金杨新村街道
浦东新区,灵岩南路1065号,上海市浦东新区灵岩南路1065号,121.499765,31.143006,121.4953403,31.14506771,东明路街道
浦东新区,创新中路380弄,上海市浦东新区创新中路380弄,121.666064,31.20757,121.6617873,31.20970246,唐镇
浦东新区,御青路918弄,上海市浦东新区御青路918弄,121.571506,31.152805,121.5672881,31.1550307,康桥镇
浦东新区,五星村三联队黄家宅,上海市浦东新区五星村三联队黄家宅,121.57079,31.18234,121.5665685,31.18454967,北蔡镇
浦东新区,天花庵村芦家队芦家油车,上海市浦东新区芦家油车,121.526629,31.124134,121.5223003,31.12628404,三林镇
浦东新区,施湾二路766弄,上海市浦东新区施湾二路766弄,121.746576,31.146487,121.7422056,31.14854415,祝桥镇
浦东新区,光明村,上海市浦东新区光明村,121.658468,31.290572,121.6541988,31.29268184,曹路镇
浦东新区,浦东大道1097号,上海市浦东新区浦东大道|1097号,121.530893,31.242775,121.5265682,31.24487708,洋泾街道
浦东新区,联勤村冯桥队冯家宅,上海市浦东新区联勤村冯桥队冯家宅,121.55105,31.164892,121.5467895,31.16707878,北蔡镇
浦东新区,启明村,上海市浦东新区启明村,121.694654,31.276764,121.6903178,31.27881207,曹路镇
浦东新区,陈胡村,上海市浦东新区陈胡村,121.769073,31.194157,121.7647136,31.19619602,祝桥镇
浦东新区,园洲路189弄,上海市浦东新区园洲路189弄,121.636217,31.31512,121.6319831,31.31725728,高东镇
浦东新区,南码头路1349弄,上海市浦东新区南码头路1349弄,121.516431,31.182053,121.5120627,31.18414402,周家渡街道
浦东新区,卫行村张浜队顾家宅,上海市浦东新区卫行村张浜队顾家宅,121.581075,31.166186,121.5768685,31.16841388,北蔡镇
浦东新区,康杉路359弄,上海市浦东新区康杉路359弄,121.561527,31.151713,121.5572913,31.15392549,康桥镇
浦东新区,前进村东窑队南李家宅,上海市奉贤区南李家宅,121.660897,30.983312,121.6566488,30.98557784,奉城镇
浦东新区,下南路370弄,上海市浦东新区下南路370弄,121.539472,31.17009,121.5351796,31.17224866,北蔡镇
浦东新区,川周公路4318弄,上海市浦东新区川周公路4318弄,121.579924,31.12192,121.5757198,31.12417046,周浦镇
浦东新区,林德路718弄,上海市浦东新区林德路718弄,121.509853,31.129501,121.5054658,31.13160014,三林镇
浦东新区,五莲路1047弄,上海市浦东新区五莲路1047弄,121.594135,31.272572,121.5899291,31.27475563,浦兴路街道
浦东新区,罗山路1700弄,上海市浦东新区罗山路1700弄,121.568261,31.225587,121.5640318,31.22777252,花木街道
浦东新区,上南路3521号,上海市浦东新区上南路3521号,121.504159,31.155069,121.4997492,31.15713756,三林镇
浦东新区,下南路320弄,上海市浦东新区下南路320弄,121.540558,31.1687,121.5362689,31.17086195,北蔡镇
浦东新区,东方路3344弄,上海市浦东新区东方路3344弄,121.513748,31.193316,121.5093693,31.19539359,南码头路街道
浦东新区,环东中心村,上海市浦东新区中心村,121.643934,31.179506,121.6396997,31.18169186,张江镇
浦东新区,博山路12弄,上海市浦东新区博山路12弄,121.556813,31.246074,121.5525594,31.24823244,洋泾街道
浦东新区,博华路999弄,上海市浦东新区博华路999弄,121.549868,31.170129,121.5456041,31.17231071,北蔡镇
浦东新区,柳埠路135弄,上海市浦东新区柳埠路135弄,121.58407,31.26168,121.5798585,31.26386446,沪东新村街道
浦东新区,瑞意路399弄,上海市浦东新区瑞意路399弄,121.587536,31.095878,121.583341,31.09814755,周浦镇
浦东新区,德州路255弄,上海市浦东新区德州路255弄,121.492316,31.168652,121.4878623,31.17067797,上钢新村街道
浦东新区,金业路72号,上海市浦东新区金业路72号,121.590196,31.253971,121.5859897,31.25616169,浦兴路街道
浦东新区,灵山路1390弄,上海市浦东新区灵山路1390弄,121.563602,31.236709,121.5593634,31.23888283,洋泾街道
浦东新区,银峰路676弄,上海市浦东新区银峰路676弄,121.690757,31.26498,121.6864285,31.26703987,曹路镇
浦东新区,五星村陈家队陈家宅,上海市浦东新区五星村陈家队陈家宅,121.567638,31.191891,121.5634105,31.19409191,北蔡镇
浦东新区,城南村一队朱家宅,上海市浦东新区城南村,121.699489,31.187777,121.6951523,31.1898579,川沙新镇
浦东新区,东方路573弄,上海市浦东新区东方路573弄,121.524899,31.231944,121.5205555,31.2340349,陆家嘴街道
浦东新区,临江村王家宅,上海市浦东新区王家宅,121.680159,31.166252,121.6758584,31.1683782,川沙新镇
浦东新区,周市路380弄,上海市浦东新区周市路380弄,121.581531,31.117984,121.5773289,31.12023782,周浦镇
浦东新区,海春路65弄,上海市浦东新区海春路65弄,121.585274,31.34994,121.5810562,31.35209107,高桥镇
浦东新区,秀龙村,上海市浦东新区秀龙村,121.562722,31.126242,121.5584908,31.12846995,康桥镇
浦东新区,瑞浦路77弄,上海市浦东新区瑞浦路77弄,121.587598,31.097959,121.5834029,31.10022742,周浦镇
浦东新区,康弘路508弄,上海市浦东新区康弘路508弄,121.60117,31.123002,121.596978,31.12525859,康桥镇
浦东新区,柳埠路142弄,上海市浦东新区柳埠路142弄,121.581054,31.263372,121.5768394,31.26555369,沪东新村街道
浦东新区,钱堂村,上海市浦东新区钱堂村,121.608091,31.157408,121.6038952,31.15964417,张江镇
浦东新区,碧云路86弄,上海市浦东新区碧云路86弄,121.576465,31.235968,121.5722472,31.23815799,花木街道
浦东新区,浦东大道2639弄,上海市浦东新区浦东大道2639弄,121.567533,31.263746,121.5632994,31.26591343,金杨新村街道
浦东新区,华夏西路5778号,上海市浦东新区华夏西路5778号,121.580603,31.166133,121.5763959,31.16836055,北蔡镇
浦东新区,莲安西路123弄,上海市浦东新区莲安西路123弄,121.553067,31.178411,121.5488103,31.18059483,北蔡镇
浦东新区,东陆路429弄,上海市浦东新区东陆路429弄,121.586703,31.280783,121.5824921,31.28296082,沪东新村街道
浦东新区,商城路1177弄,上海市浦东新区商城路1177弄,121.527836,31.235868,121.5235019,31.2379651,陆家嘴街道
浦东新区,高青路4567弄,上海市浦东新区高青路4567弄,121.561787,31.171069,121.5575502,31.17327186,北蔡镇
浦东新区,康士路15弄,上海市浦东新区康士路15弄,121.563172,31.149112,121.5589398,31.15132841,康桥镇
浦东新区,金口路471弄,上海市浦东新区金口路471弄,121.582188,31.246222,121.577976,31.24841204,金杨新村街道
浦东新区,周秀路118弄,上海市浦东新区周秀路118弄,121.605285,31.099961,121.6010946,31.10222926,周浦镇
浦东新区,严杨路45弄,上海市浦东新区严杨路45弄,121.52869,31.194293,121.5243622,31.19641216,花木街道
浦东新区,浦东大道1623弄,上海市浦东新区浦东大道1623弄,121.542275,31.245815,121.5379844,31.24794378,洋泾街道
浦东新区,兰陵路24弄,上海市浦东新区兰陵路24弄,121.517012,31.194396,121.5126447,31.19648255,南码头路街道
浦东新区,南新村西钟家宅,上海市浦东新区南新村,121.7887,30.87171,121.7843977,30.87395196,泥城镇
浦东新区,长岛路825弄,上海市浦东新区长岛路825弄,121.588467,31.26058,121.5842591,31.26276716,浦兴路街道
浦东新区,板泉路2000弄,上海市浦东新区板泉路2000弄,121.531224,31.165656,121.5269067,31.1677963,三林镇
浦东新区,东陆路1018弄,上海市浦东新区东陆路1018弄,121.592675,31.27294,121.5884685,31.2751232,浦兴路街道
浦东新区,周康路169号,上海市浦东新区周康路169号,121.572769,31.108214,121.5685567,31.11046515,周浦镇
浦东新区,杨高北路3885弄,上海市浦东新区杨高北路3885弄,121.607564,31.284151,121.6033579,31.28632794,高行镇
浦东新区,鹤永路751弄,上海市浦东新区鹤永路751弄,121.604808,31.071996,121.60062,31.07428015,航头镇
浦东新区,临江村益民队罗汉松,上海市浦东新区罗汉松,121.4818,31.12607,121.477313,31.12808759,三林镇
浦东新区,周园路1680弄,上海市浦东新区周园路,121.596327,31.098794,121.5921362,31.10106415,周浦镇
浦东新区,霞玉路436弄,上海市浦东新区霞玉路436弄,121.695041,31.257008,121.6907058,31.25906385,曹路镇
浦东新区,盛荣路288弄,上海市浦东新区盛荣路288弄,121.605796,31.169961,121.6015997,31.1721916,张江镇
浦东新区,御青路56弄,上海市浦东新区御青路56弄,121.569847,31.161718,121.5656257,31.16393705,北蔡镇
浦东新区,杨莲路310弄,上海市浦东新区杨莲路,121.54994,31.16502,121.5456767,31.16720448,北蔡镇
浦东新区,红星村一队张家宅,上海市浦东新区一队张家宅,121.714369,31.234096,121.7100079,31.23613309,合庆镇
浦东新区,康弘路515弄,上海市浦东新区康弘路515弄,121.599273,31.12266,121.5950808,31.12491699,康桥镇
浦东新区,绿林路320弄,上海市浦东新区绿林路320弄,121.547503,31.170084,121.543233,31.1722608,北蔡镇
浦东新区,德州路465弄,上海市浦东新区德州路465弄,121.481684,31.16662,121.4771932,31.16861583,上钢新村街道
浦东新区,枣庄路998弄,上海市浦东新区枣庄路998弄,121.581729,31.247293,121.5775164,31.24948224,金杨新村街道
浦东新区,航绣路50弄,上海市浦东新区航绣路50弄,121.596652,31.070947,121.5924636,31.07323285,航头镇
浦东新区,金晓路96弄,上海市浦东新区金晓路96弄,121.67474,31.27736,121.6704405,31.27944442,曹路镇
浦东新区,韩荡村南曹家宅,上海市浦东新区韩荡村曹家宅,121.627178,31.16461,121.622968,31.16682688,张江镇
浦东新区,张家桥村,上海市浦东新区张家桥村,121.68678,31.037024,121.6824778,31.03920933,宣桥镇
浦东新区,莲振路298号,上海市浦东新区莲振路298号,121.569481,31.167719,121.5652586,31.1699345,北蔡镇
浦东新区,寿光路78弄,上海市浦东新区寿光路78弄,121.585964,31.272589,121.5817532,31.27476987,沪东新村街道
浦东新区,川沙路1215号,上海市浦东新区川沙路1215号,121.677861,31.262457,121.6735568,31.2645418,曹路镇
浦东新区,芳华路478弄,上海市浦东新区芳华路478弄,121.56003,31.194874,121.5557877,31.19706207,花木街道
浦东新区,周星路500弄,上海市浦东新区周星路500弄,121.57876,31.103587,121.574556,31.10584658,周浦镇
浦东新区,利津路1111弄,上海市浦东新区利津路1111弄,121.593647,31.278652,121.5894404,31.280833,浦兴路街道
浦东新区,联勤村张家宅,上海市浦东新区联勤村,121.551406,31.168369,121.5471461,31.1705547,北蔡镇
浦东新区,兰谷路1888弄,上海市浦东新区兰谷路1888弄,121.592367,31.298234,121.5881582,31.3004068,高行镇
浦东新区,光泽路428弄,上海市浦东新区光泽路428弄,121.61835,31.328056,121.6141347,31.33020907,高东镇
浦东新区,金台路200弄,上海市浦东新区金台路200弄,121.58824,31.25087,121.5840327,31.25306133,金杨新村街道
浦东新区,胶东路818弄,上海市浦东新区胶东路818弄,121.601752,31.260078,121.5975487,31.26226687,浦兴路街道
浦东新区,永泰路775弄,上海市浦东新区永泰路775弄,121.519439,31.142046,121.5150845,31.14416637,东明路街道
浦东新区,翔川路458弄,上海市浦东新区翔川路458弄,121.695744,31.183477,121.6914138,31.18556627,川沙新镇
浦东新区,乳山路161弄,上海市浦东新区乳山路161弄,121.520981,31.236217,121.5166239,31.23829501,陆家嘴街道
浦东新区,博山东路41弄,上海市浦东新区博山东路41弄,121.55887,31.247869,121.5546208,31.25003022,金杨新村街道
浦东新区,东陆路1182弄,上海市浦东新区东陆路1182弄,121.595918,31.2707,121.5917129,31.27288462,浦兴路街道
浦东新区,五星村家务队顾家宅,上海市浦东新区五星村家务队顾家宅,121.569886,31.169133,121.5656642,31.17134828,北蔡镇
浦东新区,莲安西路125弄,上海市浦东新区莲安西路125弄,121.553648,31.179218,121.5493926,31.18140254,北蔡镇
浦东新区,巨峰路667弄,上海市浦东新区巨峰路667弄,121.601115,31.282323,121.5969098,31.28450256,浦兴路街道
浦东新区,一六村赵家队南赵家宅,上海市浦东新区一六村,121.589006,31.160246,121.5848067,31.16248141,北蔡镇
浦东新区,张杨路1269弄,上海市浦东新区张杨路1269弄,121.532639,31.232976,121.5283206,31.23508708,陆家嘴街道
浦东新区,海阳路1080弄,上海市浦东新区海阳路1080弄,121.506616,31.157235,121.5022148,31.15930978,三林镇
浦东新区,联合村西柴场,上海市浦东新区西柴场,121.672887,31.296697,121.6685895,31.2987771,曹路镇
浦东新区,上南路7992弄,上海市浦东新区上南路7992弄,121.574944,31.117541,121.570734,31.11978934,周浦镇
浦东新区,果园村,上海市浦东新区区果园,121.557347,31.202757,121.5530982,31.20493663,花木街道
浦东新区,博华路1018弄,上海市浦东新区博华路1018弄,121.551217,31.17073,121.5469564,31.17291412,北蔡镇
浦东新区,柳埠路196弄,上海市浦东新区柳埠路196弄,121.583102,31.264176,121.5788894,31.26635877,沪东新村街道
浦东新区,福山路40弄,上海市浦东新区福山路40弄,121.523695,31.236522,121.5193471,31.23860747,陆家嘴街道
浦东新区,南桥路237弄,上海市浦东新区南桥路237弄,121.708744,31.19165,121.7043934,31.19371488,川沙新镇
浦东新区,横桥路136弄,上海市浦东新区横桥路136弄,121.576706,31.107979,121.5724991,31.11023432,周浦镇
浦东新区,双桥路180弄,上海市浦东新区双桥路180弄,121.594621,31.284577,121.5904143,31.28675571,浦兴路街道
浦东新区,浦东大道501弄,上海市浦东新区浦东大道501弄,121.518095,31.242792,121.5137273,31.2448588,陆家嘴街道
浦东新区,莲园路18弄,上海市浦东新区莲园路18弄,121.542137,31.183791,121.5378511,31.18594897,北蔡镇
浦东新区,张杨北路555弄,上海市浦东新区张杨北路555弄,121.587183,31.267079,121.5829736,31.26926281,沪东新村街道
浦东新区,五莲路959弄,上海市浦东新区五莲路959弄,121.592293,31.271461,121.5880864,31.27364474,浦兴路街道
浦东新区,丁香路1089弄,上海市浦东新区丁香路1089弄,121.554606,31.228857,121.5503488,31.23101927,花木街道
浦东新区,周秀路516弄,上海市浦东新区周秀路516弄,121.607037,31.090517,121.602847,31.09278989,周浦镇
浦东新区,陈春路620弄,上海市浦东新区陈春路620弄,121.54571,31.172849,121.541435,31.17502053,北蔡镇
浦东新区,上南路3333弄,上海市浦东新区上南路3333弄,121.50199,31.159655,121.497572,31.16171465,三林镇
浦东新区,罗山路5011号,上海市浦东新区罗山路5011号,121.590709,31.164043,121.5865104,31.16627704,北蔡镇
浦东新区,招远路19弄,上海市浦东新区招远路19弄,121.515129,31.236565,121.5107515,31.23862604,陆家嘴街道
浦东新区,蒋桥村,上海市浦东新区蒋桥村,121.661042,31.047168,121.6567882,31.04939613,新场镇
浦东新区,五星村陈家队奚家宅,上海市浦东新区奚家宅,121.550453,31.156231,121.5461917,31.15842108,北蔡镇
浦东新区,芳甸路333弄,上海市浦东新区芳甸路333弄,121.56067,31.225849,121.5564264,31.22802326,花木街道
浦东新区,博兴路462弄,上海市浦东新区博兴路462弄,121.581804,31.265331,121.57759,31.2675124,沪东新村街道
浦东新区,周市路1321号,上海市浦东新区周市路1321号,121.583197,31.113354,121.5789969,31.1156115,周浦镇
浦东新区,康巴路250弄,上海市浦东新区康巴路250弄,121.563151,31.127446,121.5589206,31.12967395,康桥镇
浦东新区,南新村赵家厍,上海市浦东新区南新村,121.543294,31.166024,121.5390129,31.16819364,北蔡镇
浦东新区,商城路1317弄,上海市浦东新区商城路1317弄,121.530924,31.236357,121.5265998,31.23846207,陆家嘴街道
浦东新区,中科路申江路交界口工地生活区,上海市浦东新区中科路申江路,121.624912,31.22474,121.6206994,31.22692979,金桥镇
浦东新区,康花路661号工地生活区,上海市黄浦区工地生活区,121.470576,31.223221,121.4660435,31.2251582,南京东路街道
浦东新区,栖山路401弄,上海市浦东新区栖山路401弄,121.549599,31.246675,121.545328,31.24881934,洋泾街道
浦东新区,乳山路200弄,上海市浦东新区乳山路200弄,121.528932,31.237823,121.5246013,31.23992214,陆家嘴街道
浦东新区,永业路193弄,上海市浦东新区永业路193弄,121.615459,31.267599,121.6112507,31.26977825,金桥镇
浦东新区,民丰村李家宅,上海市浦东新区李家宅,121.549804,31.161626,121.5455406,31.16381196,北蔡镇
浦东新区,鹏飞路28弄,上海市浦东新区鹏飞路28弄,121.554162,31.174842,121.5499082,31.17702973,北蔡镇
浦东新区,浦三路858弄,上海市浦东新区浦三路858弄,121.519064,31.18188,121.5147048,31.18397868,南码头路街道
浦东新区,苗桥路935弄,上海市浦东新区苗桥路935弄,121.622679,31.141287,121.6184755,31.14352097,康桥镇
浦东新区,上南路1251弄,上海市浦东新区上南路1251弄,121.497008,31.173428,121.4925708,31.17546559,周家渡街道
浦东新区,凌河路354弄,上海市浦东新区凌河路354弄,121.599269,31.273567,121.5950644,31.27575041,浦兴路街道
浦东新区,浦三路817弄,上海市浦东新区浦三路817弄,121.520417,31.186118,121.5160621,31.1882184,南码头路街道
浦东新区,创业路78弄,上海市浦东新区创业路78弄,121.611249,31.144164,121.6070531,31.14640552,康桥镇
浦东新区,勤益村,上海市浦东新区勤益村,121.710353,31.209297,121.7059989,31.21135102,合庆镇
浦东新区,芳甸路77弄,上海市浦东新区芳甸路77弄,121.55902,31.230019,121.5547726,31.23218858,花木街道
浦东新区,南阜村,上海市浦东新区南阜村,121.519669,31.130224,121.5153163,31.13235136,三林镇
浦东新区,周秀路336弄,上海市浦东新区周秀路336弄,121.606096,31.094698,121.6019059,31.09696891,周浦镇
浦东新区,御桥村印家队东印家圈,上海市浦东新区御桥村印家队东印家圈,121.558533,31.167356,121.5542897,31.16955541,北蔡镇
浦东新区,永建路86弄,上海市浦东新区永建路86弄,121.616251,31.263011,121.6120426,31.26519162,金桥镇
浦东新区,宁桥路825号,上海市浦东新区宁桥路825号,121.62009,31.253819,121.6158795,31.2560004,金桥镇
浦东新区,浦三路637弄,上海市浦东新区浦三路637弄,121.517822,31.188647,121.513458,31.19073873,南码头路街道
浦东新区,北艾路828弄,上海市浦东新区北艾路828弄,121.538727,31.186015,121.5344311,31.18816382,北蔡镇
浦东新区,航东村,上海市浦东新区航东村,121.599392,31.028466,121.5952076,31.03077632,航头镇
浦东新区,五星村南黄队陈家宅,上海市浦东新区五星村陈家宅,121.567836,31.191897,121.5636088,31.19409817,北蔡镇
浦东新区,浦三路628弄,上海市浦东新区浦三路628弄,121.516239,31.188516,121.5118694,31.19060323,南码头路街道
浦东新区,红枫路108弄,上海市浦东新区红枫路108弄,121.587904,31.243796,121.5836971,31.24599034,金桥镇
浦东新区,尚博路650弄,上海市浦东新区尚博路650弄,121.523173,31.149547,121.5188306,31.15167393,东明路街道
浦东新区,汤巷中心村,上海市浦东新区汤巷中心村,121.60908,31.143247,121.6048851,31.14549016,康桥镇
浦东新区,新丰村万翔宅,上海市浦东新区万翔宅,121.650818,31.15894,121.6465738,31.16112485,张江镇
浦东新区,顾东村,上海市浦东新区顾东村,121.661376,31.293138,121.6571011,31.29524141,曹路镇
浦东新区,胡巷村金家宅,上海市浦东新区金家宅,121.586719,31.125041,121.582521,31.12729411,周浦镇
浦东新区,大众村中心新村,上海市浦东新区大众村中心新村,121.64837,31.228527,121.6441242,31.23068174,唐镇
浦东新区,施湾二路1026弄,上海市浦东新区施湾二路1026弄,121.749114,31.141472,121.7447446,31.14353156,祝桥镇
浦东新区,佳虹路50弄,上海市浦东新区佳虹路50弄,121.613454,31.266409,121.609247,31.26859017,金桥镇
浦东新区,红旗村,上海市浦东新区红旗村,121.754039,31.167657,121.7496693,31.16970308,祝桥镇
浦东新区,羽山路600弄,上海市浦东新区羽山路600弄,121.547086,31.232949,121.5428096,31.2350943,洋泾街道
浦东新区,金高路2131弄,上海市浦东新区金高路2131弄,121.60957,31.261501,121.6053651,31.26368655,金桥镇
浦东新区,三彩路59弄,上海市浦东新区三彩路59弄,121.498895,31.12659,121.4944686,31.12865789,三林镇
浦东新区,瑞建路88弄,上海市浦东新区瑞建路88弄,121.592856,31.09626,121.5886641,31.09853109,周浦镇
浦东新区,拱乐路2400弄,上海市浦东新区拱乐路,121.768505,31.063178,121.764156,31.06528708,惠南镇
浦东新区,锦绣路666弄,上海市浦东新区锦绣路666弄,121.556822,31.222357,121.5525704,31.22452634,花木街道
浦东新区,临江村周南队周家宅,上海市浦东新区周南队周家宅,121.474704,31.117297,121.4701939,31.11929942,三林镇
浦东新区,崮山路251弄,上海市浦东新区崮山路251弄,121.553675,31.245927,121.5494142,31.24807973,洋泾街道
浦东新区,牟平路154弄,上海市浦东新区牟平路154弄,121.595337,31.266578,121.591132,31.26876432,浦兴路街道
浦东新区,枣庄路399弄,上海市浦东新区枣庄路399弄,121.578247,31.255774,121.5740298,31.25795674,金杨新村街道
浦东新区,昌里东路71弄,上海市浦东新区昌里东路71弄,121.506203,31.176316,121.5017987,31.17837973,周家渡街道
浦东新区,长岛路259弄,上海市浦东新区长岛路259弄,121.577598,31.266108,121.5733792,31.26828569,沪东新村街道
浦东新区,金杨路785弄,上海市浦东新区金杨路785弄,121.582715,31.253974,121.5785029,31.25616096,金杨新村街道
浦东新区,梅花路230弄,上海市浦东新区梅花路230弄,121.542483,31.207857,121.5381961,31.21000392,花木街道
浦东新区,南泉路1211弄,上海市浦东新区南泉路1211弄,121.523599,31.213556,121.5192527,31.21565193,塘桥街道
浦东新区,康杉路151弄,上海市浦东新区康杉路151弄,121.56104,31.151185,121.5568034,31.15339698,康桥镇
浦东新区,成山路558号,上海市浦东新区成山路558号,121.50831,31.172296,121.5039137,31.17436807,周家渡街道
浦东新区,上浦路510弄,上海市浦东新区上浦路510弄,121.49961,31.146004,121.4951845,31.14806365,东明路街道
浦东新区,柴场村,上海市浦东新区柴场村,121.72611,31.18103,121.7217424,31.18308001,川沙新镇
浦东新区,民众村运河-西,上海市浦东新区运河西,121.669698,31.276991,121.6654084,31.27908523,曹路镇
浦东新区,康杉路608弄,上海市浦东新区康杉路608弄,121.564215,31.145559,121.5599851,31.14777886,康桥镇
浦东新区,拱川路561弄,上海市浦东新区拱川路561弄,121.747084,31.064423,121.7427206,31.06652541,惠南镇
浦东新区,峨山路280弄,上海市浦东新区峨山路280弄,121.526406,31.213928,121.522069,31.21603147,塘桥街道
浦东新区,锦和路289弄,上海市浦东新区锦和路289弄,121.537248,31.20461,121.5329461,31.20674607,花木街道
浦东新区,栏学路328弄,上海市浦东新区栏学路328弄,121.66656,31.166865,121.6622857,31.16901682,川沙新镇
浦东新区,南泉路1111弄,上海市浦东新区南泉路1111弄,121.523518,31.214409,121.5191713,31.2165043,塘桥街道
浦东新区,迎春路1355弄,上海市浦东新区迎春路1355弄,121.562925,31.229038,121.5586857,31.23121433,花木街道
浦东新区,清溪路365弄,上海市浦东新区清溪路365弄,121.572328,31.33978,121.5680958,31.34192365,高桥镇
浦东新区,龚路公路700号,上海市浦东新区龚路公路|700,121.695308,31.263931,121.6909718,31.26598339,曹路镇
浦东新区,海鸣路98弄,上海市浦东新区海鸣路98弄,121.672473,31.28274,121.6681775,31.28482653,曹路镇
浦东新区,海容路399弄,上海市浦东新区海容路399弄,121.679219,31.281937,121.6749105,31.284011,曹路镇
浦东新区,龚华路35弄,上海市浦东新区龚华路35弄,121.685945,31.270449,121.6816248,31.27251524,曹路镇
浦东新区,新安村,上海市浦东新区新安村,121.681339,31.023252,121.6770481,31.02545547,宣桥镇
浦东新区,清溪路400弄,上海市浦东新区清溪路400弄,121.571166,31.340954,121.566932,31.34309589,高桥镇
浦东新区,浦东大道1695弄,上海市浦东新区浦东大道1695弄,121.544073,31.246264,121.5397874,31.24839666,洋泾街道
浦东新区,花墙村,上海市浦东新区花墙村,121.549112,31.148377,121.544848,31.15056846,康桥镇
浦东新区,博山路51弄,上海市浦东新区博山路51弄,121.557232,31.244502,121.5529795,31.24666189,洋泾街道
浦东新区,成山路350弄,上海市浦东新区成山路350弄,121.5053,31.170797,121.500893,31.17286084,周家渡街道
浦东新区,华戴路599弄,上海市浦东新区华戴路599弄,121.700585,31.176092,121.6962476,31.17817701,川沙新镇
浦东新区,瑞浦路8弄,上海市浦东新区瑞浦路8弄,121.585403,31.098711,121.5812061,31.10097791,周浦镇
浦东新区,瑞安路80弄,上海市浦东新区瑞安路80弄,121.58788,31.08914,121.5836858,31.09141347,周浦镇
浦东新区,成山路300弄,上海市浦东新区成山路300弄,121.502274,31.17158,121.497856,31.17363436,周家渡街道
浦东新区,航瑞路459弄,上海市浦东新区航瑞路459弄,121.589445,31.076786,121.5852529,31.07906707,航头镇
浦东新区,五莲路1168号,上海市浦东新区五莲路1168号,121.596432,31.272184,121.5922269,31.27436803,浦兴路街道
浦东新区,上南路5588号,上海市浦东新区上南路5588号,121.527175,31.124859,121.522848,31.12701012,三林镇
浦东新区,懿德村,上海市浦东新区懿德村,121.516112,31.118917,121.5117479,31.12104026,三林镇
浦东新区,杨思路436弄,上海市浦东新区杨思路436弄,121.493686,31.160121,121.489238,31.16215547,三林镇
浦东新区,金湘路201弄,上海市浦东新区金湘路201弄,121.612753,31.2556,121.6085472,31.25778631,金桥镇
浦东新区,浦东大道691弄,上海市浦东新区浦东大道691弄,121.52431,31.24145,121.5199637,31.24353494,陆家嘴街道
浦东新区,五莲路593弄,上海市浦东新区五莲路593弄,121.584701,31.271011,121.5804893,31.27319184,沪东新村街道
浦东新区,灵山路1415弄,上海市浦东新区灵山路1415弄,121.562475,31.238864,121.558234,31.24103513,洋泾街道
浦东新区,川周公路4011弄,上海市浦东新区川周公路4011弄,121.587459,31.125428,121.5832615,31.12768125,周浦镇
浦东新区,五莲路1769弄,上海市浦东新区五莲路1769弄,121.595979,31.283189,121.5917729,31.28536841,浦兴路街道
浦东新区,桃林路299弄,上海市浦东新区桃林路299弄,121.537927,31.239501,121.5336242,31.24162234,洋泾街道
浦东新区,秋岚路58弄,上海市浦东新区秋岚路58弄,121.591153,31.325895,121.5869413,31.32805698,高行镇
浦东新区,南码头路551弄,上海市浦东新区南码头路551弄,121.51218,31.191696,121.5077958,31.19376978,南码头路街道
浦东新区,永业路225弄,上海市浦东新区永业路二二五弄,121.614669,31.267821,121.6104612,31.27000073,金桥镇
浦东新区,严中路140弄,上海市浦东新区严中路140弄,121.530758,31.193408,121.5264369,31.19553307,花木街道
浦东新区,灵山路600弄,上海市浦东新区灵山路600弄,121.543968,31.227164,121.5396837,31.22930515,洋泾街道
浦东新区,御青路999弄,上海市浦东新区御青路999弄,121.573796,31.154516,121.5695813,31.15674336,康桥镇
浦东新区,栖山路400弄,上海市浦东新区栖山路400弄,121.550865,31.246249,121.5465973,31.2483961,洋泾街道
浦东新区,严杨路60弄,上海市浦东新区严杨路60弄,121.528291,31.193675,121.5239619,31.1957934,花木街道
浦东新区,龙东大道4288弄,上海市浦东新区龙东大道4288弄,121.659693,31.222329,121.6554272,31.22446642,唐镇
浦东新区,胡巷村,上海市浦东新区胡巷村,121.518334,31.153024,121.5139747,31.15513542,三林镇
浦东新区,年家浜东路129弄,上海市浦东新区年家浜东路129弄,121.593828,31.115432,121.589635,31.11769268,周浦镇
浦东新区,宣春路201号,上海市浦东新区宣春路201号,121.726176,31.086106,121.7218163,31.08820683,宣桥镇
浦东新区,航头路166号,上海市浦东新区航头路166号,121.603109,31.035194,121.5989242,31.03749981,航头镇
浦东新区,临江村庞家队庞信隆,上海市浦东新区庞信隆,121.473557,31.116251,121.4690433,31.11825085,三林镇
浦东新区,五莲路759弄,上海市浦东新区五莲路759弄,121.590356,31.270819,121.5861484,31.27300247,浦兴路街道
浦东新区,丁香路910弄,上海市浦东新区丁香路910弄,121.555815,31.22565,121.5515608,31.22781598,花木街道
浦东新区,一六村油车队,上海市浦东新区油车队,121.583996,31.1601,121.5797928,31.162333,北蔡镇
浦东新区,临江村庞家队庞家宅,上海市浦东新区临江村庞家队庞家宅,121.47522,31.115862,121.4707117,31.11786662,三林镇
浦东新区,一六村金桥队南赵家宅,上海市浦东新区金桥,121.795539,30.985474,121.7912409,30.9876584,大团镇
浦东新区,虹桥村,上海市浦东新区虹桥村,121.710371,31.17567,121.7060197,31.17774063,川沙新镇
浦东新区,和平村钱家宅,上海市浦东新区和平村,121.841661,30.985554,121.8374755,30.98782058,书院镇
浦东新区,双店村,上海市浦东新区双店村,121.81807,31.001639,121.8138232,31.00385206,惠南镇
浦东新区,尚博路799弄,上海市浦东新区尚博路799弄,121.524708,31.151032,121.5203706,31.15316241,东明路街道
浦东新区,临江村张塘队张家宅,上海市浦东新区张塘队,121.487307,31.126133,121.4828392,31.12816657,三林镇
浦东新区,下南路276弄,上海市浦东新区下南路276弄,121.54198,31.168428,121.537695,31.1705934,北蔡镇
浦东新区,和平村龚家宅,上海市浦东新区和平村龚家宅,121.716438,31.226022,121.7120753,31.22806028,合庆镇
浦东新区,东陆路1350弄,上海市浦东新区东陆路1350弄,121.601502,31.267117,121.5972981,31.26930288,浦兴路街道
浦东新区,学前二村,上海市浦东新区学前二村,121.584003,31.346464,121.5797844,31.34861551,高桥镇
浦东新区,一六村船舫队,上海市浦东新区一六村船舫队,121.586233,31.158181,121.5820319,31.16041625,北蔡镇
浦东新区,新金桥路230号,上海市浦东新区新金桥路|230,121.598419,31.249619,121.5942162,31.25181282,金桥镇
浦东新区,巨野路469弄,上海市浦东新区巨野路469弄,121.550472,31.236543,121.5462041,31.2386937,洋泾街道
浦东新区,迅建村,上海市浦东新区迅建村,121.692756,31.281713,121.6884226,31.2837623,曹路镇
浦东新区,五星村吴家队吴家宅,上海市浦东新区吴家宅,121.631647,31.179955,121.6274304,31.18215857,张江镇
浦东新区,张杨路1776弄,上海市浦东新区张杨路1776弄,121.550343,31.237505,121.5460747,31.239655,洋泾街道
浦东新区,峨山路500弄,上海市浦东新区峨山路500弄,121.524088,31.21399,121.5197433,31.21608708,塘桥街道
浦东新区,北园路258弄,上海市浦东新区北园路258弄,121.523879,31.202854,121.5195345,31.20495586,塘桥街道
浦东新区,唐陆公路陈家宅,上海市浦东新区唐陆公路,121.640647,31.238017,121.636413,31.24017988,唐镇
浦东新区,新虹村赵家宅,上海市浦东新区新虹村,121.648472,31.242789,121.6442249,31.24493704,唐镇
浦东新区,虹三村七队龚家宅,上海市浦东新区虹三村7队,121.670209,31.254913,121.6659202,31.25701571,唐镇
浦东新区,前进村唐家宅,上海市浦东新区唐家宅,121.582882,31.161386,121.5786777,31.16361763,北蔡镇
浦东新区,上南路929弄,上海市浦东新区上南路929弄,121.495932,31.176684,121.4914906,31.1787167,周家渡街道
浦东新区,沪南公路7518号,上海市浦东新区沪南公路7518号,121.653933,31.028558,121.649694,31.03080996,新场镇
浦东新区,新卫村,上海市浦东新区新卫村,121.639993,31.03943,121.6357764,31.04169884,新场镇
浦东新区,韩荡村西丁家宅,上海市浦东新区丁家宅,121.609684,31.18105,121.6054857,31.18327329,张江镇
浦东新区,碧云路1198号,上海市浦东新区碧云路1198号,121.589575,31.242879,121.5853693,31.24507442,金桥镇
浦东新区,上南路6393号,上海市浦东新区上南路,121.500055,31.157498,121.4956301,31.15955296,三林镇
浦东新区,林展路411弄,上海市浦东新区林展路411弄,121.510061,31.122854,121.5056751,31.12495736,三林镇
浦东新区,板泉路2101弄,上海市浦东新区板泉路2101弄,121.531855,31.168215,121.5275395,31.17035563,三林镇
浦东新区,牟平路304弄,上海市浦东新区牟平路304弄,121.600369,31.263517,121.5961653,31.26570459,浦兴路街道
浦东新区,高科西路2757弄,上海市浦东新区高科西路2757弄,121.554296,31.189313,121.5500413,31.1914937,北蔡镇
浦东新区,巨野路236号,上海市浦东新区巨野路236号,121.545311,31.240794,121.5410292,31.24293187,洋泾街道
浦东新区,民建村,上海市浦东新区民建村,121.649894,31.272754,121.6456419,31.27488653,曹路镇
浦东新区,和龙路295弄,上海市浦东新区和龙路295弄,121.570733,31.342092,121.5664982,31.34423298,高桥镇
浦东新区,南泉路1300弄,上海市浦东新区南泉路1300弄,121.520123,31.210999,121.515765,31.21308638,塘桥街道
浦东新区,中界村张家队张家宅,上海市浦东新区张家队,121.547655,31.168015,121.5433856,31.17019319,北蔡镇
浦东新区,巨峰路176弄,上海市浦东新区巨峰路176弄,121.597196,31.2792,121.5929905,31.28138112,浦兴路街道
浦东新区,永泰路133弄,上海市浦东新区永泰路133弄,121.504655,31.136881,121.5002485,31.13896066,三林镇
浦东新区,东陆路1031弄,上海市浦东新区东陆路,121.587531,31.288407,121.5833201,31.29058208,高行镇
浦东新区,航亭环路399弄,上海市浦东新区航亭环路399弄,121.761589,31.099727,121.7572301,31.10181164,祝桥镇
浦东新区,拱海路78弄,上海市浦东新区拱海路78弄,121.736829,31.068665,121.7324656,31.07076825,惠南镇
浦东新区,严杨路166弄,上海市浦东新区严杨路166弄,121.530588,31.193854,121.5262663,31.19597841,花木街道
浦东新区,张杨路1734弄,上海市浦东新区张杨路1734弄,121.547104,31.235678,121.5428275,31.23782209,洋泾街道
浦东新区,张杨路1698弄,上海市浦东新区张杨路1698弄,121.546347,31.235822,121.5420684,31.2379644,洋泾街道
浦东新区,浦东大道1851弄,上海市浦东新区浦东大道1851弄,121.54479,31.24751,121.5405062,31.2496437,洋泾街道
浦东新区,灵山路1724弄,上海市浦东新区灵山路1724弄,121.568078,31.239982,121.5638473,31.24216066,金杨新村街道
浦东新区,灵山路708弄,上海市浦东新区灵山路708弄,121.548394,31.230818,121.5441213,31.23296705,洋泾街道
浦东新区,碧云路777号,上海市浦东新区碧云路777号,121.584938,31.241569,121.5807289,31.24376286,金桥镇
浦东新区,浦东南路1475弄,上海市浦东新区浦东南路1475弄,121.518465,31.222214,121.5141004,31.22429133,潍坊新村街道
浦东新区,凌河路188弄,上海市浦东新区凌河路188弄,121.596721,31.274996,121.5925158,31.27717886,浦兴路街道
浦东新区,潍坊路154弄,上海市浦东新区潍坊路154弄,121.52542,31.224095,121.5210789,31.22619098,潍坊新村街道
浦东新区,莱阳路111弄,上海市浦东新区莱阳路111弄,121.578075,31.273086,121.5738562,31.27526115,沪东新村街道
浦东新区,利津路729弄,上海市浦东新区利津路729弄,121.59022,31.275223,121.586012,31.27740457,浦兴路街道
浦东新区,新建村,上海市浦东新区新建村,121.83897,30.959521,121.8347799,30.9617981,万祥镇
浦东新区,五莲路400弄,上海市浦东新区五莲路400号,121.583134,31.272066,121.5789208,31.27424543,沪东新村街道
浦东新区,长岛路1066弄,上海市浦东新区长岛路1066弄,121.590004,31.259874,121.5857971,31.26206204,浦兴路街道
浦东新区,上南路1000弄,上海市浦东新区上南路1000弄,121.494039,31.174694,121.489591,31.17672204,上钢新村街道
浦东新区,荷泽路567弄,上海市浦东新区荷泽路567弄,121.595711,31.264282,121.5915064,31.26646934,浦兴路街道
浦东新区,南泉路1250弄,上海市浦东新区南泉路1250弄,121.52254,31.212562,121.5181902,31.21465545,塘桥街道
浦东新区,巨野路60弄,上海市浦东新区巨野路60弄,121.54291,31.243862,121.5386213,31.24599311,洋泾街道
浦东新区,浦东大道2511弄,上海市浦东新区浦东大道2511弄,121.559285,31.259507,121.5550357,31.26166379,金杨新村街道
浦东新区,兰城路115弄,上海市浦东新区兰城路115弄,121.579883,31.266453,121.5756669,31.26863247,沪东新村街道
浦东新区,顾三村,上海市浦东新区顾三村,121.67628,31.294745,121.6719761,31.29681939,曹路镇
浦东新区,荷泽路58弄,上海市浦东新区荷泽路58弄,121.58976,31.272669,121.5855519,31.27485148,浦兴路街道
浦东新区,绿科路环业西路交界口工地生活区,上海市浦东新区工地生活区,121.592935,31.181936,121.5887361,31.18416149,张江镇
浦东新区,博山路13弄,上海市浦东新区博山路13弄,121.558324,31.245026,121.5540738,31.24718756,洋泾街道
浦东新区,上南路6852号,上海市浦东新区上南路6852号,121.5649,31.117718,121.5606737,31.11995384,康桥镇
浦东新区,黄华村,上海市浦东新区黄华村,121.87951,30.974469,121.8754031,30.97679647,书院镇
浦东新区,浦东大道2641弄,上海市浦东新区浦东大道2641弄,121.566286,31.263607,121.5620502,31.26577279,金杨新村街道
浦东新区,东陆路898弄,上海市浦东新区东陆路898弄,121.591536,31.273345,121.5873289,31.27552775,浦兴路街道
浦东新区,浦电路62弄,上海市浦东新区浦电路62弄,121.51818,31.218163,121.5138147,31.22024142,潍坊新村街道
浦东新区,长清路807弄,上海市浦东新区长清路807弄,121.493677,31.15618,121.4892293,31.1582165,三林镇
浦东新区,南新村东钟家宅,上海市浦东新区东钟家宅,121.542313,31.16645,121.5380291,31.16861719,北蔡镇
浦东新区,首善街619弄,上海市浦东新区首善街619弄,121.871399,30.974869,121.8672792,30.97718782,书院镇
浦东新区,浦东大道2688号,上海市浦东新区浦东大道|2688,121.570022,31.263472,121.5657926,31.26564275,金杨新村街道
浦东新区,叠桥村,上海市浦东新区叠桥村,121.616303,31.128098,121.6121057,31.13034472,康桥镇
浦东新区,三林镇徐家宅,上海市浦东新区三林镇徐家宅,121.760408,31.202653,121.7560394,31.20468321,祝桥镇
浦东新区,东海农场2村,上海市浦东新区东海农场,121.906525,30.954519,121.9024417,30.95686808,书院镇
浦东新区,东靖路669弄,上海市浦东新区东靖路669弄,121.586456,31.293936,121.5822438,31.29610835,高行镇
浦东新区,宣中路697弄,上海市浦东新区宣中路697弄,121.705198,31.021241,121.7008667,31.02340455,宣桥镇
浦东新区,康桥东路1244号,上海市浦东新区康桥东路1244号,121.63128,31.155769,121.6270659,31.15798547,康桥镇
浦东新区,博山东路440弄,上海市浦东新区博山东路440弄,121.568457,31.252103,121.5642259,31.25427673,金杨新村街道
浦东新区,秀沿西路68弄,上海市浦东新区秀沿西路68弄,121.537304,31.131437,121.5330084,31.13361074,康桥镇
浦东新区,浦电路218弄,上海市浦东新区浦电路,121.52613,31.219872,121.5217916,31.2219719,潍坊新村街道
浦东新区,上南路3880弄,上海市浦东新区上南路3880弄,121.503901,31.149588,121.4994907,31.15165866,三林镇
浦东新区,宣镇东路628弄,上海市浦东新区宣镇东路628弄,121.702486,31.020687,121.6981587,31.02285503,宣桥镇
浦东新区,齐河路28弄,上海市浦东新区齐河路28弄,121.501994,31.178499,121.4975744,31.180549,周家渡街道
浦东新区,金桥路1502弄,上海市浦东新区金桥路1502弄,121.587832,31.248649,121.5836246,31.25084114,金杨新村街道
浦东新区,荷泽路825弄,上海市浦东新区荷泽路825弄,121.597376,31.260582,121.5931721,31.26277102,浦兴路街道
浦东新区,张家浜路188弄,上海市浦东新区张家浜路,121.516933,31.215096,121.5125636,31.21717229,潍坊新村街道
浦东新区,康沈路250号,上海市浦东新区康沈路|250号,121.570288,31.141538,121.5660691,31.14376819,康桥镇
浦东新区,三舒路288弄,上海市浦东新区三舒路288弄,121.504908,31.12057,121.5005038,31.12265923,三林镇
浦东新区,川银路81弄,上海市浦东新区川银路81弄,121.68605,31.192761,121.6817361,31.19486283,川沙新镇
浦东新区,德平路58弄,上海市浦东新区德平路58弄,121.558606,31.252008,121.5543559,31.25416693,金杨新村街道
浦东新区,耀路423弄,上海市上海市浦东新区,121.583173,31.275461,121.5789595,31.27763903,沪东新村街道
浦东新区,临江村筠西队庞家宅,上海市浦东新区筠西队庞家宅,121.475772,31.116186,121.4712655,31.11819197,三林镇
浦东新区,芦云路200弄,上海市浦东新区芦云路200弄,121.858869,30.873336,121.8547329,30.87569781,南汇新城镇
浦东新区,新营村张朱家宅,上海市浦东新区张朱家宅,121.751978,31.196975,121.7476049,31.19900613,祝桥镇
浦东新区,日新村,上海市浦东新区日新村,121.81204,31.060941,121.8077733,31.06310854,老港镇
浦东新区,永和村,上海市浦东新区永和村,121.695709,31.263936,121.6913721,31.2659877,曹路镇
浦东新区,浦明路1228弄,上海市浦东新区浦明路1228弄,121.514066,31.213581,121.5096867,31.21564967,塘桥街道
浦东新区,东河村,上海市浦东新区东河村,121.848889,31.016449,121.8447186,31.01871013,老港镇
浦东新区,镇南村,上海市浦东新区镇南村,121.580605,31.338937,121.5763836,31.34108878,高桥镇
浦东新区,浦建路207弄,上海市浦东新区浦建路207弄,121.523206,31.209647,121.5188587,31.21174371,塘桥街道
浦东新区,高桥镇胡家街,上海市浦东新区胡家街,121.583844,31.342677,121.5796256,31.34482971,高桥镇
浦东新区,康沈路1870弄,上海市浦东新区康沈路1870弄,121.57862,31.111353,121.5744152,31.11360817,周浦镇
浦东新区,海潮村,上海市浦东新区海潮村,121.763029,30.956476,121.7586833,30.95864452,大团镇
浦东新区,莱阳路881弄,上海市浦东新区莱阳路881弄,121.582735,31.283813,121.5785204,31.28598728,沪东新村街道
浦东新区,沪南公路3468弄,上海市浦东新区沪南公路3468弄,121.565412,31.113877,121.561187,31.11611568,康桥镇
浦东新区,杨新路77弄,上海市浦东新区杨新路77弄,121.493959,31.163451,121.4895117,31.16548456,三林镇
浦东新区,江东路1992弄,上海市浦东新区江东路1992弄,121.549228,31.359712,121.5449466,31.36181166,高桥镇
浦东新区,塘北村,上海市浦东新区塘北村,121.879981,30.909349,121.8758801,30.91171549,书院镇
浦东新区,海鹏路380弄,上海市浦东新区海鹏路380弄,121.677917,31.288218,121.6736105,31.2902919,曹路镇
浦东新区,康桥路90弄,上海市浦东新区康桥路,121.582189,31.150764,121.5779849,31.15300071,康桥镇
浦东新区,曹路镇姜薛家宅,上海市浦东新区姜薛家宅,121.662123,31.261461,121.6578493,31.26357621,曹路镇
浦东新区,长岛路1201弄,上海市浦东新区长岛路1201弄,121.592419,31.261429,121.5882133,31.26361706,浦兴路街道
浦东新区,东海二村,上海市浦东新区东海二村,121.903233,30.954081,121.899149,30.9564308,书院镇
浦东新区,长岛路85弄,上海市浦东新区长岛路85弄,121.578107,31.267817,121.5738887,31.26999441,沪东新村街道
浦东新区,龚华路50弄,上海市浦东新区龚华路50弄,121.683747,31.266927,121.6794312,31.2689988,曹路镇
浦东新区,民耀路293弄,上海市浦东新区民耀路,121.654187,31.270841,121.6499274,31.27296678,曹路镇
浦东新区,卫行村顾家队顾家宅,上海市浦东新区卫行村顾家队顾家宅,121.582499,31.166914,121.5782938,31.16914252,北蔡镇
浦东新区,锦绣东路418弄,上海市浦东新区锦绣东路418弄,121.580552,31.229389,121.5763397,31.23158552,金桥镇
浦东新区,中林村,上海市浦东新区中林村,121.498536,31.136779,121.4941074,31.13884033,三林镇
浦东新区,沪南公路2688弄,上海市浦东新区沪南公路2688弄,121.566897,31.13806,121.5626727,31.14028766,康桥镇
浦东新区,金钻路398弄,上海市浦东新区金钻路398弄,121.670329,31.285602,121.6660374,31.28769146,曹路镇
浦东新区,妙境路162弄,上海市浦东新区妙境路162-124弄,121.687912,31.196563,121.6835944,31.19865955,川沙新镇
浦东新区,高博路188弄,上海市浦东新区高博路188弄,121.579975,31.297467,121.5757564,31.29963377,高行镇
浦东新区,民耀路391弄,上海市浦东新区民耀路391弄,121.655013,31.271323,121.6507519,31.27344709,曹路镇
浦东新区,民同路293弄,上海市浦东新区民同路293弄,121.653,31.27085,121.6487426,31.2729779,曹路镇
浦东新区,瑞安路699弄,上海市浦东新区瑞安路699弄,121.601052,31.092445,121.5968625,31.09471847,周浦镇
浦东新区,中界村黄家队黄家宅,上海市浦东新区黄家队黄家宅,121.573025,31.185266,121.5688067,31.18747677,北蔡镇
浦东新区,南码头路1186弄,上海市浦东新区南码头路1186弄,121.51291,31.183113,121.5085292,31.18519321,周家渡街道
浦东新区,临江村周北队周家宅,上海市浦东新区周北队周家宅,121.473758,31.118042,121.4692448,31.12004142,三林镇
浦东新区,利津路215弄,上海市浦东新区利津路215弄,121.582511,31.278813,121.5782966,31.28098919,沪东新村街道
浦东新区,华星村陆家宅,上海市浦东新区华星村,121.715135,31.200434,121.7107758,31.20248609,合庆镇
浦东新区,栖山路1489弄,上海市浦东新区栖山路1489弄,121.564501,31.257189,121.5602624,31.25935502,金杨新村街道
浦东新区,浦东南路1533号,上海市浦东新区浦东南路1533号,121.520808,31.220683,121.5164516,31.22276773,潍坊新村街道
浦东新区,博兴路1676弄,上海市浦东新区博兴路1676弄,121.602122,31.275607,121.5979174,31.27778918,浦兴路街道
浦东新区,永业路218弄,上海市浦东新区永业路218弄,121.615781,31.267454,121.6115725,31.26963307,金桥镇
浦东新区,栖山路1460弄,上海市浦东新区栖山路1460弄,121.564986,31.256681,121.5607483,31.25884795,金杨新村街道
浦东新区,浦东南路1288号,上海市浦东新区浦东南路1288号,121.51656,31.22523,121.5121885,31.22730043,潍坊新村街道
浦东新区,溪平路425弄,上海市浦东新区溪平路425弄,121.689001,31.262391,121.6846759,31.26445512,曹路镇
浦东新区,迎春路719号,上海市浦东新区迎春路719号,121.55235,31.223789,121.5480878,31.22594932,花木街道
浦东新区,寿光路31弄,上海市浦东新区寿光路31弄,121.583096,31.273484,121.5788826,31.27566281,沪东新村街道
浦东新区,川周公路2828弄,上海市浦东新区川周公路2828弄,121.617604,31.143465,121.6134045,31.14570245,康桥镇
浦东新区,昌里路340弄,上海市浦东新区昌里路340弄,121.491798,31.171967,121.4873422,31.17398973,上钢新村街道
浦东新区,灵山路1840弄,上海市浦东新区灵山路1840弄,121.571334,31.241708,121.5671085,31.24388993,金杨新村街道
浦东新区,牌楼村,上海市浦东新区牌楼村,121.558582,31.052878,121.5543483,31.05514033,航头镇
浦东新区,栏杆村,上海市浦东新区栏杆村,121.668064,31.168888,121.6637866,31.17103591,川沙新镇
浦东新区,成山路24弄,上海市浦东新区成山路24弄,121.485722,31.168014,121.481245,31.17002081,上钢新村街道
浦东新区,祝家港路155弄,上海市浦东新区祝家港路155弄,121.585554,31.111399,121.5813562,31.11365897,周浦镇
浦东新区,崂山五村,上海市浦东新区崂山五村,121.517219,31.237259,121.5128488,31.23932579,陆家嘴街道
浦东新区,成山路601弄,上海市浦东新区成山路601弄,121.508729,31.174472,121.504334,31.17654421,周家渡街道
浦东新区,张杨路2238弄,上海市浦东新区张杨路2238弄,121.557696,31.240298,121.5534449,31.2424606,洋泾街道
浦东新区,懿行路971弄,上海市浦东新区懿行路971弄,121.514804,31.125133,121.5104347,31.12724908,三林镇
浦东新区,城南路374弄,上海市浦东新区城南路374弄,121.701737,31.191986,121.6973965,31.1940612,川沙新镇
浦东新区,五莲路1424弄,上海市浦东新区五莲路1424弄,121.599287,31.276842,121.5950821,31.27902404,浦兴路街道
浦东新区,崂山三村,上海市浦东新区崂山三村,121.518632,31.234973,121.5142669,31.23704489,陆家嘴街道
浦东新区,金家浜,上海市浦东新区金家浜,121.562357,31.256563,121.5581143,31.25872605,金杨新村街道
浦东新区,浦东大道2742弄,上海市浦东新区浦东大道2742弄,121.568195,31.264438,121.5639624,31.26660601,金杨新村街道
浦东新区,天花庵村乐耕队,上海市浦东新区天花庵村乐耕队,121.521964,31.127002,121.5176194,31.12913759,三林镇
浦东新区,航梅路525号,上海市浦东新区航梅路525号,121.577719,31.025715,121.5735202,31.02801815,航头镇
浦东新区,寿光路161弄,上海市浦东新区寿光路161弄,121.583951,31.274435,121.5797383,31.27661395,沪东新村街道
浦东新区,羽山路1445弄,上海市浦东新区羽山路1445弄,121.561696,31.242188,121.5574532,31.2443564,洋泾街道
浦东新区,金桥路835弄,上海市浦东新区金桥路835弄,121.578372,31.259141,121.5741547,31.26132237,沪东新村街道
浦东新区,新场村,上海市浦东新区新场村,121.650995,31.019963,121.6467619,31.02222518,新场镇
浦东新区,金葵路945弄,上海市浦东新区金葵路945弄,121.62744,31.240301,121.6232234,31.24248079,金桥镇
浦东新区,巨野路大陆家宅,上海市浦东新区巨野路,121.542936,31.244102,121.5386474,31.24623306,洋泾街道
浦东新区,杨辉村,上海市浦东新区杨辉村,121.653553,31.004159,121.6493167,31.00642595,新场镇
浦东新区,跃丰村,上海市浦东新区跃丰村,121.708738,31.224599,121.7043847,31.22664801,合庆镇
浦东新区,新奉公路122弄,上海市浦东新区新奉公路,121.647561,31.010678,121.6433346,31.01295151,新场镇
浦东新区,高宝路229弄,上海市浦东新区高宝路229弄,121.619153,31.292101,121.61494,31.29426711,高东镇
浦东新区,新川路625弄,上海市浦东新区新川路625弄,121.693998,31.191403,121.6896701,31.19349131,川沙新镇
浦东新区,新环西路1000弄,上海市浦东新区新环西路1000弄,121.639548,31.030112,121.6353329,31.03238694,新场镇
浦东新区,拱海路79弄,上海市浦东新区拱海路79弄,121.736569,31.069595,121.7322056,31.07169785,惠南镇
浦东新区,千汇路750弄,上海市浦东新区千汇路750弄,121.763353,31.117395,121.7589941,31.11947069,祝桥镇
浦东新区,浦电路48弄,上海市浦东新区浦电路48弄,121.517186,31.218112,121.5128173,31.22018759,潍坊新村街道
浦东新区,龙汇路1880弄,上海市浦东新区龙汇路1880弄,121.554643,31.201619,121.5503881,31.20379429,花木街道
浦东新区,千汇路580弄,上海市浦东新区千汇路580弄,121.767483,31.113844,121.7631286,31.11592396,祝桥镇
浦东新区,祥安路36弄,上海市浦东新区祥安路36弄,121.815285,30.961787,121.8110345,30.96401855,万祥镇
浦东新区,上浦路480弄,上海市浦东新区上浦路480弄,121.498612,31.146496,121.4941829,31.14855239,东明路街道
浦东新区,乳山二村,上海市浦东新区乳山二村,121.518175,31.233344,121.5138084,31.23541533,陆家嘴街道
浦东新区,千汇路32弄,上海市浦东新区千汇路,121.76696,31.109251,121.7626054,31.11133316,祝桥镇
浦东新区,行德路141弄,上海市浦东新区行德路141弄,121.610968,31.294905,121.6067598,31.29707591,高行镇
浦东新区,康沈路2588弄,上海市浦东新区康沈路2588弄,121.581494,31.096624,121.5772936,31.09888959,周浦镇
浦东新区,长清路773弄,上海市浦东新区长清路773弄,121.492144,31.156088,121.4876908,31.15811996,三林镇
浦东新区,金亭公路619号,上海市浦东新区金亭公路|619,121.768033,31.11224,121.7636793,31.11432119,祝桥镇
浦东新区,五莲路100弄,上海市浦东新区五莲路100弄,121.579356,31.275677,121.5751385,31.27785214,沪东新村街道
浦东新区,尚博路366弄,上海市浦东新区尚博路366弄,121.516656,31.146457,121.5122914,31.14856704,东明路街道
浦东新区,浦东南路2351弄,上海市浦东新区浦东南路2351弄,121.512258,31.197332,121.5078737,31.19940323,南码头路街道
浦东新区,兰谷路2777弄,上海市浦东新区兰谷路2777弄,121.596203,31.292842,121.5919961,31.29501751,高行镇
浦东新区,济阳路65弄,上海市浦东新区济阳路65弄,121.482215,31.167224,121.4777259,31.16922104,上钢新村街道
浦东新区,北中路354弄,上海市浦东新区北中路354弄,121.559653,31.183189,121.5554108,31.18538226,北蔡镇
浦东新区,沪二小区,上海市浦东新区沪二小区,121.582569,31.268686,121.5783555,31.27086649,沪东新村街道
浦东新区,秀沿路2875弄,上海市浦东新区秀沿路2875弄,121.612972,31.13811,121.6087758,31.14035369,康桥镇
浦东新区,高桥村江家宅,上海市浦东新区高桥村,121.724395,31.166991,121.7200298,31.16904974,川沙新镇
浦东新区,锦安东路458弄,上海市浦东新区锦安东路458弄,121.542659,31.199603,121.5383733,31.20175433,花木街道
浦东新区,六灶湾村,上海市浦东新区六灶湾村,121.766216,31.014665,121.7618685,31.0168008,惠南镇
浦东新区,德平路1060弄,上海市浦东新区德平路1060弄,121.566648,31.242748,121.5624145,31.24492348,金杨新村街道
浦东新区,俱进路505弄,上海市浦东新区俱进路505弄,121.613105,31.301693,121.6088952,31.30385994,高行镇
浦东新区,浦东大道2740弄,上海市浦东新区浦东大道2740弄,121.571683,31.266594,121.5674559,31.26876539,沪东新村街道
浦东新区,博兴路616弄,上海市浦东新区博兴路616弄,121.58504,31.263282,121.5808292,31.26546633,沪东新村街道
浦东新区,康沈路1929弄,上海市浦东新区康沈路1929弄,121.580692,31.109913,121.5764897,31.11217063,周浦镇
浦东新区,莲溪路1099弄,上海市浦东新区莲溪路1099弄,121.565915,31.173237,121.561686,31.17544493,北蔡镇
浦东新区,东方路1600弄,上海市浦东新区东方路1600弄,121.525426,31.210065,121.5210861,31.21216765,塘桥街道
浦东新区,莱阳路451弄,上海市浦东新区莱阳路451弄,121.582551,31.275762,121.5783369,31.27793949,沪东新村街道
浦东新区,东绣路1086弄,上海市浦东新区东绣路1086弄,121.53629,31.19933,121.5319857,31.20146628,花木街道
浦东新区,张杨北路588弄,上海市浦东新区张杨北路588弄,121.590564,31.267341,121.5863568,31.26952601,浦兴路街道
浦东新区,北张家浜路188弄,上海市浦东新区北张家浜路188弄,121.525183,31.216405,121.5208417,31.21850395,潍坊新村街道
浦东新区,上南四村,上海市浦东新区上南四村,121.497367,31.172334,121.4929312,31.17437322,周家渡街道
浦东新区,大众村王家宅,上海市浦东新区王家宅,121.680159,31.166252,121.6758584,31.1683782,川沙新镇
浦东新区,西门村,上海市浦东新区西门村,121.741775,31.054821,121.737412,31.05693012,惠南镇
浦东新区,劳动村,上海市浦东新区劳动村,121.629564,31.179705,121.62535,31.18191133,张江镇
浦东新区,丁香路1399弄,上海市浦东新区丁香路1399弄,121.564242,31.229547,121.5600052,31.23172508,花木街道
浦东新区,民生路423号,上海市浦东新区民生路423号,121.543117,31.240174,121.5388292,31.24230725,洋泾街道
浦东新区,博兴路986弄,上海市浦东新区博兴路986弄,121.593422,31.265394,121.5892164,31.26758056,浦兴路街道
浦东新区,西泥路113弄,上海市浦东新区西泥路113弄,121.703131,31.197317,121.6987879,31.19938739,川沙新镇
浦东新区,唐镇虹四村,上海市浦东新区虹四村,121.655361,31.240591,121.6511018,31.24272793,唐镇
浦东新区,新南村,上海市浦东新区新南村,121.645316,31.001888,121.6410941,31.00417041,新场镇
浦东新区,汤巷村,上海市浦东新区汤巷村,121.603787,31.147221,121.5995929,31.14946406,康桥镇
浦东新区,崮山路311号,上海市浦东新区崮山路311号,121.554656,31.246169,121.5503975,31.24832347,洋泾街道
浦东新区,永宁路33弄,上海市浦东新区永宁路33弄,121.613728,31.271826,121.6095204,31.27400468,金桥镇
浦东新区,浦建路83弄,上海市浦东新区浦建路83弄,121.520303,31.210666,121.5159457,31.21275406,塘桥街道
浦东新区,云山路1045弄,上海市浦东新区云山路1045弄,121.574366,31.247953,121.5701444,31.25013549,金杨新村街道
浦东新区,荡湾路2号,上海市浦东新区荡湾路2号,121.764758,31.0446,121.7604066,31.04671751,惠南镇
浦东新区,浦电路311号,上海市浦东新区浦电路311号,121.526282,31.219891,121.5219441,31.22199131,潍坊新村街道
浦东新区,新任村,上海市上海市浦东新区,121.583173,31.275461,121.5789595,31.27763903,沪东新村街道
浦东新区,永泰路59弄,上海市浦东新区永泰路59弄,121.501827,31.135647,121.4974104,31.13771883,三林镇
浦东新区,夏碧路79弄,上海市浦东新区夏碧路79弄,121.589595,31.338982,121.5853813,31.3411388,高桥镇
浦东新区,季桥村,上海市浦东新区季桥村,121.699339,31.061256,121.6950132,31.06340551,宣桥镇
浦东新区,康桥路1558弄,上海市浦东新区康桥路1558弄,121.572956,31.150475,121.5687405,31.15270357,康桥镇
浦东新区,海春路150弄,上海市浦东新区海春路150弄,121.5851,31.347789,121.5808823,31.3499407,高桥镇
浦东新区,浦东大道275弄,上海市浦东新区浦东大道275弄,121.515941,31.240194,121.511566,31.24225575,陆家嘴街道
浦东新区,浦东大道3076弄,上海市浦东新区浦东大道3076弄,121.576777,31.281566,121.5725559,31.28373644,沪东新村街道
浦东新区,项文路333弄,上海市浦东新区项文路,121.705737,31.047319,121.7014027,31.04946656,宣桥镇
浦东新区,王桥村,上海市浦东新区王桥村,121.663269,31.014115,121.6590137,31.01635822,新场镇
浦东新区,荣科路177弄,上海市浦东新区荣科路,121.60739,31.178354,121.6031927,31.18057972,张江镇
浦东新区,沪南路3468弄,上海市浦东新区沪南路3468弄,121.567411,31.140086,121.5631874,31.14231328,康桥镇
浦东新区,杨高北路4705弄,上海市浦东新区杨高北路4705弄,121.604907,31.279107,121.6007019,31.28128701,金桥镇
浦东新区,万六村,上海市浦东新区万六村,121.819907,30.968155,121.8156676,30.97039128,万祥镇
浦东新区,万和路118弄,上海市浦东新区万和路118弄,121.816316,30.966153,121.8120677,30.96838384,万祥镇
浦东新区,御北路235号工地生活区,上海市浦东新区五建工地生活区,121.566928,31.156877,121.5627022,31.15909477,北蔡镇
浦东新区,民雨路333弄,上海市浦东新区民雨路333弄,121.663714,31.276121,121.6594361,31.27822698,曹路镇
浦东新区,坦西村,上海市浦东新区坦西村,121.633655,31.074112,121.6294446,31.07637002,新场镇
浦东新区,笋心路10号,上海市浦东新区笋心路10号,121.643139,31.022143,121.638919,31.02441703,新场镇
浦东新区,天花庵村南陈队大陈家宅,上海市浦东新区南陈队,121.523764,31.122456,121.5194259,31.12459908,三林镇
浦东新区,博山路50弄,上海市浦东新区博山路50弄,121.555934,31.245981,121.5516784,31.2481379,洋泾街道
浦东新区,新路村,上海市浦东新区新路村,121.832232,30.97392,121.8280236,30.97617601,万祥镇
浦东新区,潍坊路140弄,上海市浦东新区潍坊路140弄,121.525016,31.225282,121.5206734,31.22737631,潍坊新村街道
浦东新区,周秀路26弄,上海市浦东新区周秀路26弄,121.6054,31.101442,121.6012095,31.1037094,周浦镇
浦东新区,南码头路1696弄,上海市浦东新区南码头路1696弄,121.514519,31.175947,121.5101445,31.17803554,周家渡街道
浦东新区,东明路660弄,上海市浦东新区东明路660弄,121.50907,31.177952,121.5046759,31.18002346,周家渡街道
浦东新区,博兴路916弄,上海市浦东新区博兴路916弄,121.59159,31.26464,121.5873836,31.26682647,浦兴路街道
浦东新区,东八灶,上海市浦东新区东八灶,121.58212,31.115396,121.5779187,31.11765166,周浦镇
浦东新区,仁义村,上海市浦东新区仁义村,121.64085,31.058527,121.6366306,31.0607835,新场镇
浦东新区,王楼村,上海市浦东新区王楼村,121.617876,31.068368,121.6136825,31.0706467,航头镇
浦东新区,荷泽路25弄,上海市浦东新区荷泽路25弄,121.591681,31.274349,121.5874739,31.27653137,浦兴路街道
浦东新区,芳华路916弄,上海市浦东新区芳华路916弄,121.567984,31.196221,121.5637567,31.19842024,花木街道
浦东新区,定水路50弄,上海市浦东新区定水路50弄,121.549152,31.241557,121.5448803,31.24370272,洋泾街道
浦东新区,康沈公路1300弄,上海市浦东新区康沈公路1300弄,121.576337,31.121742,121.5721285,31.12398942,周浦镇
浦东新区,耀华路414弄,上海市浦东新区耀华路414弄,121.485732,31.173158,121.4812546,31.17516221,上钢新村街道
浦东新区,妙境路55弄,上海市浦东新区妙境路55弄,121.689366,31.198488,121.6850456,31.20058098,川沙新镇
浦东新区,德州路300弄,上海市浦东新区德州路300弄,121.490454,31.167508,121.4859938,31.16952902,上钢新村街道
浦东新区,周南村,上海市浦东新区周南村,121.583943,31.109007,121.579744,31.11126736,周浦镇
浦东新区,灵山路1799弄,上海市浦东新区灵山路1799弄,121.57201,31.242865,121.5677854,31.24504719,金杨新村街道
浦东新区,崮山路968号,上海市浦东新区崮山路968号,121.561583,31.235147,121.5573405,31.23731843,洋泾街道
浦东新区,汇成路1245弄,上海市浦东新区汇成路1245弄,121.705054,31.033539,121.7007218,31.03569558,宣桥镇
浦东新区,陈行村一队张家宅,上海市浦东新区陈行村一队张家宅,121.720018,31.165929,121.7156567,31.16799274,川沙新镇
浦东新区,耀华路87弄,上海市浦东新区耀华路87弄,121.491422,31.178703,121.4869643,31.18072119,上钢新村街道
浦东新区,民同路176弄,上海市浦东新区民同路176弄,121.65144,31.271735,121.6471853,31.27386527,曹路镇
浦东新区,唐陆路石家观音堂,上海市浦东新区石家观音堂,121.640323,31.236549,121.6360896,31.23871305,唐镇
浦东新区,乳山路114弄,上海市浦东新区乳山路114弄,121.521646,31.234256,121.5172913,31.23633678,陆家嘴街道
浦东新区,周市路66号,上海市浦东新区周市路66号,121.583869,31.110652,121.5796698,31.11291141,周浦镇
浦东新区,牌楼东路528弄,上海市浦东新区牌楼东路528弄,121.65591,31.025437,121.6516676,31.02768722,新场镇
浦东新区,海桥村,上海市浦东新区海桥村,121.610459,31.010373,121.6062745,31.01269046,航头镇
浦东新区,东陆路1268弄,上海市浦东新区东陆路1268弄,121.596251,31.268468,121.5920462,31.27065359,浦兴路街道
浦东新区,长岛路1203弄,上海市浦东新区长岛路1203弄,121.592997,31.261963,121.5887915,31.26415095,浦兴路街道
浦东新区,长岛路625弄,上海市浦东新区长岛路625弄,121.585196,31.262367,121.5809854,31.26455182,沪东新村街道
浦东新区,三林镇金家宅,上海市浦东新区三林镇金家宅,121.654695,31.163391,121.6504434,31.16556668,张江镇
浦东新区,沪南路2000号,上海市浦东新区沪南路2000号,121.560994,31.164559,121.5567562,31.16676394,北蔡镇
浦东新区,新春村,上海市浦东新区新春村,121.692579,31.160334,121.6882561,31.16244055,川沙新镇
浦东新区,康沈路1527弄,上海市浦东新区康沈路1527弄,121.576405,31.118336,121.5721969,31.12058535,周浦镇
浦东新区,沪南公路2000号,上海市浦东新区沪南公路|2000号,121.559964,31.16435,121.555724,31.16655337,北蔡镇
浦东新区,创新西路199弄,上海市浦东新区创新西路199弄,121.655168,31.200838,121.6509124,31.202994,唐镇
浦东新区,滨海一村西顾家宅,上海市浦东新区西顾家宅,121.603643,31.116926,121.5994514,31.11918539,周浦镇
浦东新区,长达村,上海市浦东新区长达村,121.57143,31.027357,121.5672223,31.0296527,航头镇
浦东新区,成山路1712号,上海市浦东新区成山路1712号,121.529864,31.177095,121.5255414,31.17922588,北蔡镇
浦东新区,长岛路99号,上海市浦东新区长岛路99号,121.577979,31.267554,121.5737605,31.26973141,沪东新村街道
浦东新区,沪南路4851弄,上海市浦东新区沪南路4851弄,121.589035,31.070101,121.5848432,31.07238572,航头镇
浦东新区,东波路585弄,上海市浦东新区东波路585弄,121.586701,31.28507,121.5824898,31.28724605,沪东新村街道
浦东新区,上南路东明路工地生活区,上海市浦东新区东明路街道工地,121.548595,31.204722,121.544325,31.20688383,花木街道
浦东新区,天花庵村闵北队闵家宅,上海市浦东新区闵北队闵家宅,121.533069,31.122657,121.5287611,31.12482487,三林镇
浦东新区,新镇村谢家宅,上海市浦东新区谢家宅,121.760127,31.140188,121.7557635,31.14225001,祝桥镇
浦东新区,新浜村陈家宅,上海市浦东新区陈家宅,121.565209,31.176723,121.5609784,31.17892815,北蔡镇
浦东新区,佳林路919弄,上海市浦东新区佳林路919弄,121.611658,31.266748,121.6074518,31.26893015,金桥镇
浦东新区,光明路61弄,上海市浦东新区光明路61弄,121.614304,31.334878,121.6100908,31.33703175,高东镇
浦东新区,华路村七队蔡家宅,上海市浦东新区蔡家宅,121.798289,31.078007,121.793989,31.08014174,祝桥镇
浦东新区,沪南路235号工地生活区,上海市浦东新区五建工地生活区,121.566928,31.156877,121.5627022,31.15909477,北蔡镇
浦东新区,沪南公路5192号,上海市浦东新区沪南公路5192号,121.588881,31.052314,121.5846905,31.05460886,航头镇
浦东新区,金桥路2552弄,上海市浦东新区金桥路2552弄,121.602448,31.234428,121.5982468,31.23662819,金桥镇
浦东新区,张江镇中心村王家宅,上海市浦东新区王家宅,121.66439,31.170866,121.6601196,31.17301989,川沙新镇
浦东新区,五莲路780弄,上海市浦东新区五莲路780弄,121.590839,31.268663,121.5866319,31.27084753,浦兴路街道
浦东新区,佳乐路255弄,上海市浦东新区佳乐路255弄,121.61519,31.269524,121.6109817,31.27170263,金桥镇
浦东新区,德平路1065弄,上海市浦东新区德平路1065弄,121.567796,31.24265,121.5635646,31.24482708,金杨新村街道
浦东新区,御桥村姚家宅,上海市浦东新区姚家宅,121.576303,31.184603,121.5720893,31.18681747,北蔡镇
浦东新区,长桥村南乔家宅,上海市浦东新区南乔家,121.732321,31.1452,121.7279528,31.14726369,川沙新镇
浦东新区,蓝村路471弄,上海市浦东新区蓝村路471弄,121.527281,31.212312,121.522947,31.21441862,塘桥街道
浦东新区,环林西路613弄,上海市浦东新区环林西路613弄,121.524508,31.14049,121.5201709,31.14262543,东明路街道
浦东新区,大沟村西王家宅,上海市浦东新区大沟村,121.757729,31.174783,121.7533608,31.17682621,祝桥镇
浦东新区,宣镇东路625弄,上海市浦东新区宣镇东路625弄,121.700086,31.020513,121.6957624,31.02268494,宣桥镇
浦东新区,成山路648弄,上海市浦东新区成山路648弄,121.510931,31.17107,121.5065441,31.17315048,周家渡街道
浦东新区,会龙村,上海市浦东新区会龙村,121.713388,31.094767,121.7090398,31.09687693,川沙新镇
浦东新区,环林东路271弄,上海市浦东新区环林东路271弄,121.526538,31.149139,121.5222069,31.15127541,东明路街道
浦东新区,潘姚村西刘队刘家宅,上海市浦东新区刘家宅,121.645176,31.148731,121.6409422,31.15093073,康桥镇
浦东新区,前进村西李家宅,上海市浦东新区前进村,121.639736,31.202485,121.6355063,31.20466602,唐镇
浦东新区,永业路94弄,上海市浦东新区永业路94弄,121.613766,31.264468,121.609559,31.26664979,金桥镇
浦东新区,芳芯路149弄,上海市浦东新区芳芯路149弄,121.554416,31.191914,121.5501614,31.19409363,花木街道
浦东新区,周东路529号,上海市浦东新区周东路|529号,121.585128,31.118424,121.5809293,31.12067988,周浦镇
浦东新区,德州路254号,上海市浦东新区德州路|254号,121.49272,31.16782,121.4882679,31.16984761,上钢新村街道
浦东新区,罗山路108弄,上海市浦东新区罗山路108弄,121.552376,31.248465,121.5481118,31.2506141,洋泾街道
浦东新区,新环北路1080弄,上海市浦东新区新环北路1080弄,121.638859,31.032503,121.6346447,31.03477758,新场镇
浦东新区,杨莲路160弄,上海市浦东新区杨莲路,121.54994,31.16502,121.5456767,31.16720448,北蔡镇
浦东新区,祝城路84弄,上海市浦东新区祝城路84弄,121.76374,31.10869,121.7593822,31.11077067,祝桥镇
浦东新区,杨新路197弄,上海市浦东新区杨新路197弄,121.492209,31.162979,121.4877554,31.16500758,三林镇
浦东新区,鹏岳路152弄,上海市浦东新区鹏岳路152弄,121.553634,31.170616,121.5493793,31.17280488,北蔡镇
浦东新区,三彩路166弄,上海市浦东新区三彩路166弄,121.497686,31.123664,121.4932555,31.12572984,三林镇
浦东新区,李桥村,上海市浦东新区李桥村,121.717914,31.016782,121.7135673,31.01893121,宣桥镇
浦东新区,唐四村王家东宅,上海市浦东新区唐四村,121.661112,31.214327,121.6568442,31.21646556,唐镇
浦东新区,广益路15弄,上海市浦东新区广益路15弄,121.764693,31.109369,121.7603361,31.11144979,祝桥镇
浦东新区,成山路475弄,上海市浦东新区成山路475弄,121.506723,31.172503,121.5023209,31.17457023,周家渡街道
浦东新区,海霞路135弄,上海市浦东新区海霞路135弄,121.735948,31.167255,121.7315765,31.16930497,祝桥镇
浦东新区,上南三村,上海市浦东新区上南三村,121.497834,31.173988,121.4933997,31.17602778,周家渡街道
浦东新区,庆星八队西圈夏家宅,上海市浦东新区西圈夏家宅,121.715514,31.231063,121.7111518,31.23310006,合庆镇
浦东新区,通济路365弄,上海市浦东新区通济路365弄,121.745586,31.052104,121.7412234,31.05421372,惠南镇
浦东新区,南码头路238弄,上海市浦东新区南码头路238弄,121.50835,31.1977,121.5039517,31.19975947,南码头路街道
浦东新区,虹二村沈家宅,上海市浦东新区虹二村,121.680677,31.235958,121.6763696,31.23804925,唐镇
浦东新区,坦南村,上海市浦东新区坦南村,121.651899,31.071746,121.6476601,31.07397664,新场镇
浦东新区,民雪路108弄,上海市浦东新区民雪路108号,121.658404,31.274767,121.6541363,31.27688346,曹路镇
浦东新区,妙境路595弄,上海市浦东新区妙境路595弄,121.69295,31.19019,121.688624,31.19228073,川沙新镇
浦东新区,东园三村,上海市浦东新区东园三村(东北门),121.514647,31.230704,121.5102683,31.23276633,陆家嘴街道
浦东新区,东靖路119弄,上海市浦东新区东靖路,121.576405,31.291452,121.5721826,31.29361806,高行镇
浦东新区,海容路99弄,上海市浦东新区海容路99弄,121.673785,31.280018,121.6694872,31.28210315,曹路镇
浦东新区,繁荣路266弄,上海市浦东新区繁荣路266弄,121.57184,31.105542,121.5676265,31.10779358,周浦镇
浦东新区,新吉村,上海市浦东新区新吉村,121.713066,31.109355,121.7087169,31.11145725,川沙新镇
浦东新区,秀沿西路258弄,上海市浦东新区秀沿西路258弄,121.52979,31.129512,121.5254712,31.13166761,康桥镇
浦东新区,立新村,上海市浦东新区立新村,121.747433,31.090497,121.7430675,31.09258459,祝桥镇
浦东新区,秋岚路48弄,上海市浦东新区秋岚路,121.594536,31.327509,121.5903257,31.3296711,高行镇
浦东新区,共和村陈家宅,上海市浦东新区陈家宅,121.565209,31.176723,121.5609784,31.17892815,北蔡镇
浦东新区,鹏飞路333弄,上海市浦东新区鹏飞路333弄,121.557363,31.171562,121.5531168,31.17375723,北蔡镇
浦东新区,齐爱路99弄,上海市浦东新区齐爱路99弄,121.65629,31.219382,121.6520308,31.22152706,唐镇
浦东新区,浦东大道1615号,上海市浦东新区浦东大道1615号,121.542056,31.244998,121.5377648,31.24712665,洋泾街道
浦东新区,庆星村二队费家宅,上海市浦东新区费家宅,121.743493,31.157575,121.7391213,31.15962695,祝桥镇
浦东新区,里仁村,上海市浦东新区里仁村,121.568675,31.107483,121.5644563,31.10972964,周浦镇
浦东新区,城南路41弄,上海市浦东新区城南路41弄,121.742535,31.04068,121.7381732,31.04279706,惠南镇
浦东新区,博山东路459弄,上海市浦东新区博山东路459弄,121.567859,31.253536,121.5636268,31.25570831,金杨新村街道
浦东新区,蓝村路30弄,上海市浦东新区蓝村路30弄,121.530216,31.2109,121.5258917,31.21301513,塘桥街道
浦东新区,新农村沈家宅,上海市浦东新区沈家宅,121.726044,31.251821,121.7216704,31.2538375,合庆镇
浦东新区,连民村,上海市浦东新区连民村,121.688701,31.086087,121.6843912,31.08824073,川沙新镇
浦东新区,东明路355弄,上海市浦东新区东明路355弄,121.510919,31.184586,121.506531,31.1866596,周家渡街道
浦东新区,拱乐路698弄,上海市浦东新区拱乐路698弄,121.771278,31.064817,121.7669321,31.06692714,惠南镇
浦东新区,棉场村,上海市浦东新区棉场村,121.846685,30.967491,121.8425133,30.96977724,书院镇
浦东新区,兰城路108弄,上海市浦东新区兰城路108弄,121.580518,31.263736,121.5763028,31.26591713,沪东新村街道
浦东新区,凤家码头夏家宅,上海市浦东新区凤家码头,121.718582,31.235358,121.7142162,31.23738947,合庆镇
浦东新区,周康新村,上海市浦东新区周康新村,121.568678,31.135634,121.5644569,31.13786532,康桥镇
浦东新区,拱_路2626弄,上海市浦东新区2626弄,121.770634,31.053557,121.7662883,31.05567312,惠南镇
浦东新区,北张家浜路170弄,上海市浦东新区北张家浜路170弄,121.525098,31.216296,121.5207565,31.21839477,潍坊新村街道
浦东新区,下南路526弄,上海市浦东新区下南路526弄,121.538418,31.171248,121.5341224,31.17340354,北蔡镇
浦东新区,罗山路1505号,上海市浦东新区罗山路1505号,121.570463,31.227946,121.5662372,31.2301332,花木街道
浦东新区,芳华路933弄,上海市浦东新区芳华路933弄,121.5687,31.197884,121.5644738,31.20008335,花木街道
浦东新区,虹二村盛家宅,上海市浦东新区盛家宅,121.697502,31.161824,121.6931707,31.16392137,川沙新镇
浦东新区,灵山路1671弄,上海市浦东新区灵山路1671弄,121.566871,31.239802,121.5626382,31.24197912,金杨新村街道
浦东新区,环林东路799弄,上海市浦东新区环林东路799弄,121.532312,31.141172,121.5280002,31.14332796,东明路街道
浦东新区,周邓公路6600弄,上海市浦东新区周邓公路6600弄,121.603098,31.116331,121.5989065,31.11859085,周浦镇
浦东新区,东建路228弄,上海市浦东新区东建路228弄,121.532215,31.200889,121.5278979,31.2030142,花木街道
浦东新区,西营南路68弄,上海市浦东新区西营南路68弄,121.487783,31.15899,121.4833141,31.16100752,三林镇
浦东新区,德平路1134弄,上海市浦东新区德平路1134弄,121.569817,31.239195,121.5655892,31.24137624,金杨新村街道
浦东新区,昌里东路190弄,上海市浦东新区昌里东路190弄,121.505401,31.176093,121.5009939,31.17815445,周家渡街道
浦东新区,鹿溪村,上海市浦东新区鹿溪村,121.709725,31.118141,121.7053793,31.1202429,川沙新镇
浦东新区,陈家弄,上海市浦东新区陈家弄,121.597783,31.209387,121.5935834,31.21159946,张江镇
浦东新区,海阳路1064号,上海市浦东新区海阳路|1064,121.505978,31.159097,121.5015744,31.16116891,三林镇
浦东新区,玉盘北路281号,上海市浦东新区玉盘北路|281号,121.67255,31.225235,121.6682592,31.22734668,唐镇
浦东新区,航梅路525弄,上海市浦东新区航梅路525弄,121.574216,31.024454,121.5700127,31.02675449,航头镇
浦东新区,民贤路28弄,上海市浦东新区民贤路28弄,121.693163,31.196125,121.6888361,31.19821242,川沙新镇
浦东新区,周埠村,上海市浦东新区周埠村,121.77125,30.996696,121.7669098,30.99884581,大团镇
浦东新区,妙境北路451号,上海市浦东新区妙境北路451号,121.685922,31.207222,121.6816072,31.20931699,唐镇
浦东新区,洪山路300弄,上海市浦东新区洪山路300弄,121.50013,31.170498,121.4957043,31.17254647,周家渡街道
浦东新区,环林东路799,上海市浦东新区环林东路|799号,121.533358,31.141194,121.5290495,31.14335263,东明路街道
浦东新区,秀沿路1177弄二支弄,上海市浦东新区秀沿路1177弄,121.580324,31.135836,121.5761191,31.13807926,康桥镇
浦东新区,光泽路120弄,上海市浦东新区光泽路120弄,121.613966,31.332599,121.6097532,31.33475379,高东镇
浦东新区,学北路165弄,上海市浦东新区学北路165弄,121.707355,31.190677,121.7030064,31.19274434,川沙新镇
浦东新区,芳华路503弄,上海市浦东新区芳华路503弄,121.561221,31.196263,121.556981,31.19845232,花木街道
浦东新区,江绣路300弄,上海市浦东新区江绣路300弄,121.733423,31.172957,121.729052,31.17500553,祝桥镇
浦东新区,秀沿路2571弄,上海市浦东新区秀沿路,121.579118,31.133692,121.574912,31.13593544,康桥镇
浦东新区,申江南路3266号,上海市浦东新区申江南路3266号,121.641832,31.101498,121.6376075,31.10372868,周浦镇
浦东新区,红旗村李家队李家油车,上海市浦东新区李家油车,121.491659,31.124849,121.4872067,31.12689615,三林镇
浦东新区,航鹤路1000弄,上海市浦东新区航鹤路,121.586232,31.035114,121.582041,31.03741763,航头镇
浦东新区,成山路248弄,上海市浦东新区成山路248弄,121.498579,31.170148,121.4941477,31.17219198,周家渡街道
浦东新区,虹二村朱家宅,上海市浦东新区虹二村朱家宅,121.706061,31.224279,121.7017114,31.22633203,合庆镇
浦东新区,浦电路489号工地生活区,上海市浦东新区工地生活区,121.533,31.226917,121.5286832,31.22903181,潍坊新村街道
浦东新区,金杨路660弄,上海市浦东新区金杨路660弄,121.581982,31.251171,121.5777694,31.25335869,金杨新村街道
浦东新区,瑞和路101弄,上海市浦东新区瑞和路101弄,121.58645,31.08674,121.5822549,31.08901415,航头镇
浦东新区,栖山路450弄,上海市浦东新区栖山路450弄,121.551792,31.24754,121.5475265,31.24968837,洋泾街道
浦东新区,龚华路406弄,上海市浦东新区龚华路406弄,121.685816,31.260781,121.6814968,31.26285162,曹路镇
浦东新区,红旗村镇南队江湖宅,上海市浦东新区江湖宅,121.494144,31.121282,121.4897009,31.12333851,三林镇
浦东新区,团结村,上海市浦东新区团结村,121.778241,31.02155,121.7739084,31.02369139,惠南镇
浦东新区,储楼村,上海市浦东新区储楼村,121.616008,31.068116,121.6118158,31.07039633,航头镇
浦东新区,高桥村一队唐家宅,上海市浦东新区唐家宅,121.582882,31.161386,121.5786777,31.16361763,北蔡镇
浦东新区,灵山路730弄,上海市浦东新区灵山路730弄,121.550248,31.231355,121.54598,31.23350763,洋泾街道
浦东新区,三三公路5020弄,上海市浦东新区三三公路5020弄,121.907584,30.953003,121.903501,30.95535273,书院镇
浦东新区,海松路398弄,上海市浦东新区海松路398弄,121.680314,31.276724,121.6760039,31.27879809,曹路镇
浦东新区,周阳路399弄,上海市浦东新区周阳路399弄,121.603293,31.092049,121.5991035,31.09432225,周浦镇
浦东新区,南团公路858弄,上海市浦东新区南团公路858弄,121.762263,31.026738,121.7579108,31.02886468,惠南镇
浦东新区,昌里路167弄,上海市浦东新区昌里路167弄,121.497553,31.175154,121.4931176,31.17719234,周家渡街道
浦东新区,东三街102弄,上海市浦东新区东三街102弄,121.509851,31.201489,121.5054577,31.20355108,南码头路街道
浦东新区,年家浜路501弄,上海市浦东新区年家浜路501弄,121.568708,31.113393,121.5644888,31.11563643,周浦镇
浦东新区,栖山路1088弄,上海市浦东新区栖山路1088弄,121.558689,31.252723,121.554439,31.25488176,金杨新村街道
浦东新区,成日村,上海市浦东新区成日村,121.811764,31.060951,121.8074966,31.06311805,老港镇
浦东新区,佳林路115弄,上海市浦东新区佳林路115弄,121.6084,31.269321,121.6041949,31.27150376,金桥镇
浦东新区,御青路328弄,上海市浦东新区御青路328弄,121.571995,31.155838,121.5677776,31.15806267,北蔡镇
浦东新区,昌里东路80弄,上海市浦东新区昌里东路80弄,121.50622,31.174304,121.501816,31.17636881,周家渡街道
浦东新区,桥北村,上海市浦东新区桥北村,121.801009,31.016709,121.7967201,31.01888345,惠南镇
浦东新区,航头路1137弄,上海市浦东新区航头路1137弄,121.593355,31.032262,121.5891686,31.03456978,航头镇
浦东新区,红三村一队唐家宅,上海市浦东新区唐家宅,121.582882,31.161386,121.5786777,31.16361763,北蔡镇
浦东新区,东方路1800弄,上海市浦东新区东方路1800弄,121.522468,31.20268,121.5181188,31.20477802,塘桥街道
浦东新区,南码头路1453弄,上海市浦东新区南码头路1453弄,121.51637,31.178762,121.5120017,31.1808545,周家渡街道
浦东新区,海松路52弄,上海市浦东新区海松路52弄,121.675991,31.274775,121.6716893,31.27685812,曹路镇
浦东新区,五莲路108弄,上海市浦东新区五莲路,121.599772,31.281952,121.5955667,31.28413188,浦兴路街道
浦东新区,永乐村,上海市浦东新区永乐村,121.75879,31.077639,121.7544308,31.07973501,惠南镇
浦东新区,历城路100弄,上海市浦东新区历城路100弄,121.492379,31.174652,121.4879251,31.1766751,上钢新村街道
浦东新区,海院新村,上海市浦东新区海院新村,121.54017,31.242191,121.5358736,31.24431651,洋泾街道
浦东新区,鹏飞路101弄,上海市浦东新区鹏飞路101弄,121.555642,31.175603,121.5513916,31.17779308,北蔡镇
浦东新区,东陆路1755弄,上海市浦东新区东陆路1755弄,121.60917,31.264351,121.604965,31.26653552,金桥镇
浦东新区,环桥路1136弄,上海市浦东新区环桥路1136弄,121.604826,31.136209,121.6006327,31.13845761,康桥镇
浦东新区,羽山路383弄,上海市浦东新区羽山路383弄,121.543901,31.232918,121.539616,31.23505633,洋泾街道
浦东新区,张杨北路558弄,上海市浦东新区张杨北路558弄,121.588223,31.268184,121.5840143,31.27036779,浦兴路街道
浦东新区,潍坊六村,上海市浦东新区潍坊六村,121.52242,31.222213,121.518069,31.22430154,潍坊新村街道
浦东新区,罗山路1507弄,上海市浦东新区罗山路1507弄,121.570905,31.228071,121.5666799,31.23025867,花木街道
浦东新区,张家浜路98弄,上海市浦东新区张家浜路,121.516933,31.215096,121.5125636,31.21717229,潍坊新村街道
浦东新区,莲溪路780弄,上海市浦东新区莲溪路780弄,121.561427,31.176805,121.557189,31.17900437,北蔡镇
浦东新区,张杨北路512弄,上海市浦东新区张杨北路512弄,121.587727,31.265018,121.5835182,31.26720294,浦兴路街道
浦东新区,莱阳路2328弄,上海市浦东新区莱阳路2328弄,121.584608,31.309453,121.580393,31.31161828,高行镇
浦东新区,高科西路961号,上海市浦东新区高科西路961号,121.511709,31.186974,121.5073236,31.18904874,周家渡街道
浦东新区,牡丹路186弄,上海市浦东新区牡丹路186弄,121.546473,31.206044,121.5421973,31.20820068,花木街道
浦东新区,花山路609弄,上海市浦东新区花山路609弄,121.575189,31.347835,121.5709603,31.34997893,高桥镇
浦东新区,孙建路815弄,上海市浦东新区孙建路815弄,121.639365,31.183729,121.6351375,31.18591985,张江镇
浦东新区,汇成路1118号,上海市浦东新区汇成路1118号,121.707869,31.03452,121.7035328,31.03667188,宣桥镇
浦东新区,芳芯路175弄,上海市浦东新区芳芯路175弄,121.554416,31.191914,121.5501614,31.19409363,花木街道
浦东新区,京浦路160弄,上海市浦东新区京浦路160弄,121.568052,31.153236,121.5638284,31.15545718,北蔡镇
浦东新区,唐四村费家宅,上海市浦东新区费家宅,121.743493,31.157575,121.7391213,31.15962695,祝桥镇
浦东新区,下南路465弄,上海市浦东新区下南路465弄,121.540741,31.171416,121.5364522,31.17357699,北蔡镇
浦东新区,虹三村五队赵家宅,上海市浦东新区虹三村,121.673202,31.253705,121.6689075,31.25580251,唐镇
浦东新区,寿光路75弄,上海市浦东新区寿光路75弄,121.584269,31.273303,121.5800567,31.27548262,沪东新村街道
浦东新区,长丰村四队北唐家宅,上海市浦东新区长丰村,121.674519,31.182775,121.6702279,31.18490351,川沙新镇
浦东新区,航瑞路389弄,上海市浦东新区航瑞路389弄,121.591308,31.074523,121.5871171,31.07680595,航头镇
浦东新区,康安路御桥路交界口工地生活区,上海市浦东新区工地生活区,121.567091,31.156931,121.5628654,31.15914896,北蔡镇
浦东新区,博兴路760弄,上海市浦东新区博兴路760弄,121.589285,31.261732,121.5850775,31.26391898,浦兴路街道
浦东新区,北艾路1765弄,上海市浦东新区北艾路1765弄,121.523338,31.177993,121.5189938,31.1801057,北蔡镇
浦东新区,崮山路322弄,上海市浦东新区崮山路322弄,121.554843,31.244461,121.550585,31.24661658,洋泾街道
浦东新区,鹤永路600弄,上海市浦东新区鹤永路600弄,121.60283,31.074415,121.598642,31.07669831,航头镇
浦东新区,东风村,上海市浦东新区东风村,121.698839,31.227705,121.6945,31.22976771,合庆镇
浦东新区,林展路422弄,上海市浦东新区林展路422弄,121.50841,31.12214,121.5040183,31.12423884,三林镇
浦东新区,永泰路1650弄,上海市浦东新区永泰路1650弄,121.534945,31.144782,121.5306411,31.14694275,三林镇
浦东新区,东陆路1456弄,上海市浦东新区东陆路1456弄,121.601679,31.266971,121.5974751,31.26915691,浦兴路街道
浦东新区,先进村,上海市浦东新区先进村,121.803904,31.096412,121.799615,31.09854541,祝桥镇
浦东新区,羽山路308弄,上海市浦东新区羽山路308弄,121.5418,31.231687,121.5375092,31.23382111,洋泾街道
浦东新区,鹤鸣村,上海市浦东新区鹤鸣村,121.58823,31.045703,121.5840396,31.04800141,航头镇
浦东新区,康沈路1199弄,上海市浦东新区康沈路1199弄,121.57502,31.125299,121.5708095,31.1275432,康桥镇
浦东新区,永安新村,上海市浦东新区永安新村,121.550722,31.24828,121.5464537,31.25042591,洋泾街道
浦东新区,康安路御北路交界口工地生活区,上海市浦东新区工地生活区,121.567091,31.156931,121.5628654,31.15914896,北蔡镇
浦东新区,鹏岳路70弄,上海市浦东新区鹏岳路70弄,121.553103,31.174258,121.5488468,31.17644401,北蔡镇
浦东新区,长岛路1280弄,上海市浦东新区长岛路1280弄,121.594614,31.259942,121.5904093,31.2621311,浦兴路街道
浦东新区,海鹏路301弄,上海市浦东新区海鹏路301弄,121.67424,31.289495,121.6699405,31.2915754,曹路镇
浦东新区,蓝村路60弄,上海市浦东新区蓝村路60弄,121.529418,31.210257,121.5250912,31.21237033,塘桥街道
浦东新区,秋霞路200弄,上海市浦东新区秋霞路200弄,121.588697,31.335834,121.584483,31.33799157,高桥镇
浦东新区,临江村西新队小金家宅,上海市浦东新区小金家宅,121.481889,31.124151,121.4774025,31.12616989,三林镇
浦东新区,唐兴路191弄,上海市浦东新区唐兴路191弄,121.650411,31.20487,121.6461636,31.20703246,唐镇
浦东新区,荣成路85弄,上海市浦东新区荣成路85弄,121.517824,31.240934,121.5134556,31.24300086,陆家嘴街道
浦东新区,锦绣路888弄,上海市浦东新区锦绣路888弄,121.552483,31.220898,121.5482214,31.22305994,花木街道
浦东新区,东方路2993弄,上海市浦东新区东方路2993弄,121.519922,31.194614,121.5155647,31.19670878,南码头路街道
浦东新区,南码头路1187弄,上海市浦东新区南码头路1187弄,121.514591,31.183945,121.510216,31.18602972,周家渡街道
浦东新区,航头路1675弄,上海市浦东新区航头路1675弄,121.580672,31.030694,121.5764762,31.03299668,航头镇
浦东新区,瑞和路168弄,上海市浦东新区瑞和路168弄,121.588711,31.085745,121.5845177,31.08802073,航头镇
浦东新区,福山路100弄,上海市浦东新区福山路100弄,121.527233,31.232532,121.5228972,31.234629,陆家嘴街道
浦东新区,海阳路1318弄,上海市浦东新区海阳路1318弄,121.513448,31.159142,121.5090711,31.16123604,三林镇
浦东新区,张杨北路2899号,上海市浦东新区张杨北路2899号,121.587161,31.308381,121.5829482,31.31054803,高行镇
浦东新区,六里新村,上海市浦东新区六里新村,121.51912,31.18354,121.5147609,31.185638,南码头路街道
浦东新区,沈梅路300弄,上海市浦东新区沈梅路,121.57701,31.091709,121.5728049,31.09397365,周浦镇
浦东新区,团新村,上海市浦东新区团新村,121.753359,31.015384,121.7490018,31.01751483,大团镇
浦东新区,康花路锦绣路交界口工地生活区,上海市浦东新区锦绣路工地,121.548595,31.204722,121.544325,31.20688383,花木街道
浦东新区,鹤永路750弄,上海市浦东新区鹤永路750弄,121.603457,31.072021,121.5992691,31.07430552,航头镇
浦东新区,德淳路99弄,上海市浦东新区德淳路99弄,121.666725,31.228564,121.6624452,31.23068526,唐镇
浦东新区,汇南村,上海市浦东新区汇南村,121.735975,31.040516,121.7316142,31.04263591,惠南镇
浦东新区,博兴路465弄,上海市浦东新区博兴路465弄,121.58544,31.266009,121.5812293,31.26819238,沪东新村街道
浦东新区,方竹路423弄,上海市浦东新区方竹路423弄,121.904608,30.893824,121.9005293,30.8962093,南汇新城镇
浦东新区,张杨路951号,上海市浦东新区张杨路|951号,121.526293,31.230964,121.5219542,31.23305917,陆家嘴街道
浦东新区,绿林路51弄,上海市浦东新区绿林路51弄,121.548717,31.17463,121.5444498,31.17680704,北蔡镇
浦东新区,尚博路518弄,上海市浦东新区尚博路518弄,121.519372,31.148597,121.5150167,31.15071371,东明路街道
浦东新区,城南路1385弄,上海市浦东新区城南路1385弄,121.780727,31.042309,121.7763965,31.04444088,惠南镇
浦东新区,创新中路593弄,上海市浦东新区创新中路593弄,121.66886,31.211369,121.6645775,31.2134943,唐镇
浦东新区,凌兆路530弄,上海市浦东新区凌兆路530弄,121.507506,31.146373,121.503109,31.14845615,东明路街道
浦东新区,洋溢村,上海市浦东新区洋溢村,121.886162,30.93401,121.882067,30.93636663,书院镇
浦东新区,胶东路266弄,上海市浦东新区胶东路266弄,121.594223,31.25422,121.5900187,31.25641155,浦兴路街道
浦东新区,三林镇高树队汤家宅,上海市浦东新区三林镇汤家宅,121.528762,31.133111,121.5244395,31.13526194,三林镇
浦东新区,创新西路333弄,上海市浦东新区创新西路333弄,121.651631,31.201304,121.6473818,31.20346606,唐镇
浦东新区,鹤沙路699弄,上海市浦东新区鹤沙路699弄,121.590902,31.081406,121.5867104,31.08368494,航头镇
浦东新区,莱阳路350弄,上海市浦东新区莱阳路350弄,121.582944,31.273833,121.5787304,31.27601156,沪东新村街道
浦东新区,杨高中路266弄,上海市浦东新区杨高中路266弄,121.596006,31.253241,121.5918024,31.25543317,浦兴路街道
浦东新区,浦电路138弄,上海市浦东新区浦电路138弄,121.521954,31.219119,121.5176016,31.22120769,潍坊新村街道
浦东新区,微山二村,上海市浦东新区微山二村,121.513534,31.208331,121.5091532,31.21040063,塘桥街道
浦东新区,张杨路1662弄,上海市浦东新区张杨路1662弄,121.544898,31.235458,121.5406155,31.23759739,洋泾街道
浦东新区,长清路75弄,上海市浦东新区长清路75弄,121.489052,31.172498,121.4845864,31.17451231,上钢新村街道
浦东新区,浦建路1086弄,上海市浦东新区浦建路1086弄,121.537816,31.206108,121.5335157,31.20824473,花木街道
浦东新区,三八路115弄,上海市浦东新区三八路115弄,121.759508,31.046128,121.7551519,31.04824231,惠南镇
浦东新区,凌兆路500弄,上海市浦东新区凌兆路500弄,121.500206,31.143508,121.4957829,31.14557077,东明路街道
浦东新区,吴店村郭家宅,上海市浦东新区吴店村,121.721203,31.146427,121.7168423,31.14849965,川沙新镇
浦东新区,金桥路715号,上海市浦东新区金桥路715号,121.577754,31.260499,121.5735358,31.26267924,沪东新村街道
浦东新区,沉香村,上海市浦东新区沉香村,121.596555,31.076109,121.5923661,31.07839191,航头镇
浦东新区,凌河路38弄,上海市浦东新区凌河路38弄,121.594166,31.277012,121.5899598,31.27919377,浦兴路街道
浦东新区,振东苑,上海市浦东新区振东苑,121.764981,31.031431,121.7606309,31.03355629,惠南镇
浦东新区,临江村唐家宅,上海市浦东新区唐家宅,121.582882,31.161386,121.5786777,31.16361763,北蔡镇
浦东新区,康意路御北路交界口工地生活区,上海市浦东新区工地生活区,121.567091,31.156931,121.5628654,31.15914896,北蔡镇
浦东新区,浦东南路1700弄,上海市浦东新区浦东南路1700弄,121.518121,31.217659,121.5137556,31.21973749,潍坊新村街道
浦东新区,城西路104号,上海市浦东新区城西路|104,121.749728,31.045362,121.7453668,31.04747519,惠南镇
浦东新区,上南路1200弄,上海市浦东新区上南路1200弄,121.495114,31.172101,121.4906701,31.17413358,上钢新村街道
浦东新区,新虹村瞿家宅,上海市浦东新区新虹村瞿家宅,121.651221,31.246873,121.6469687,31.24901447,唐镇
浦东新区,上浦路36弄,上海市浦东新区上浦路36弄,121.491439,31.144288,121.4869843,31.14632407,东明路街道
浦东新区,三林路1662弄,上海市浦东新区三林路1662弄,121.526302,31.147122,121.5219703,31.14925884,东明路街道
浦东新区,上钢二村,上海市浦东新区上钢二村,121.493867,31.17592,121.4894183,31.1779469,上钢新村街道
浦东新区,博山东路20弄,上海市浦东新区博山东路20弄,121.559836,31.2454,121.555589,31.24756394,金杨新村街道
浦东新区,福山路102弄,上海市浦东新区福山路102弄,121.526618,31.231097,121.5222803,31.23319299,陆家嘴街道
浦东新区,东明路560弄,上海市浦东新区东明路560弄,121.509193,31.179539,121.5047992,31.18161002,周家渡街道
浦东新区,金沪路1218弄,上海市浦东新区金沪路1218弄,121.602198,31.240838,121.5979962,31.24303532,金桥镇
浦东新区,西林村,上海市浦东新区西林村,121.498532,31.136773,121.4941034,31.13883432,三林镇
浦东新区,妙境北路318号,上海市浦东新区妙境北路318号,121.687688,31.204092,121.6833702,31.20618528,川沙新镇
浦东新区,鹤沙路201弄,上海市浦东新区鹤沙路201弄,121.600423,31.079877,121.5962345,31.08215763,航头镇
浦东新区,诚礼路298弄,上海市浦东新区诚礼路298弄,121.667209,31.224865,121.6629286,31.22698706,唐镇
浦东新区,张杨路1673弄,上海市浦东新区张杨路1673弄,121.542981,31.236932,121.5386931,31.23906641,洋泾街道
浦东新区,浦东大道3号,上海市浦东新区浦东大道3号,121.51116,31.240007,121.5067681,31.24205483,陆家嘴街道
浦东新区,运盐河路1255弄,上海市浦东新区运盐河路1255弄,121.717499,31.181877,121.7131389,31.18393545,川沙新镇
浦东新区,幸福村,上海市浦东新区幸福村,121.777148,31.025745,121.7728134,31.02788286,惠南镇
浦东新区,芳华路411弄,上海市浦东新区芳华路411弄,121.55854,31.196151,121.5542944,31.19833594,花木街道
浦东新区,潍坊路375弄,上海市浦东新区潍坊路375弄,121.531411,31.228451,121.5270891,31.23056099,潍坊新村街道
浦东新区,羽山路1950弄,上海市浦东新区羽山路1950弄,121.567923,31.244468,121.5636916,31.24664443,金杨新村街道
浦东新区,康安路280号工地生活区,上海市浦东新区五建工地生活区,121.566928,31.156877,121.5627022,31.15909477,北蔡镇
浦东新区,绿林路50弄,上海市浦东新区绿林路50弄,121.546916,31.174109,121.5426441,31.17628249,北蔡镇
浦东新区,红枫路300弄,上海市浦东新区红枫路300弄,121.591517,31.242246,121.5873124,31.24444231,金桥镇
浦东新区,浦三路1285号工地生活区,上海市浦东新区工地生活区,121.527641,31.178665,121.5233111,31.18078915,北蔡镇
浦东新区,浦三路926弄,上海市浦东新区浦三路926弄,121.519249,31.18051,121.5148906,31.1826099,南码头路街道
浦东新区,南码头路10号工地生活区,上海市浦东新区南码头路|10,121.506313,31.202436,121.5019069,31.20448708,南码头路街道
浦东新区,栖霞路190弄,上海市浦东新区栖霞路,121.518696,31.237037,121.5143309,31.23910813,陆家嘴街道
浦东新区,长岛路728弄,上海市浦东新区长岛路728弄,121.585855,31.260141,121.5816452,31.26232714,浦兴路街道
浦东新区,中界村季家宅,上海市浦东新区季家宅,121.570951,31.190182,121.5667291,31.19238795,北蔡镇
浦东新区,长岛路1398弄,上海市浦东新区长岛路1398弄,121.598622,31.263717,121.5944181,31.26590465,浦兴路街道
浦东新区,浙桥路208号,上海市浦东新区浙桥路208号,121.600977,31.251856,121.5967743,31.2540486,金桥镇
浦东新区,陈桥村,上海市浦东新区陈桥村,121.556697,31.174692,121.5524491,31.17688445,北蔡镇
浦东新区,枣庄路552弄,上海市浦东新区枣庄路552弄,121.578853,31.251229,121.5746369,31.25341426,金杨新村街道
浦东新区,苗圃路218弄,上海市浦东新区苗圃路218弄,121.548322,31.243248,121.544048,31.24539123,洋泾街道
浦东新区,成山路2388弄,上海市浦东新区成山路2388弄,121.546001,31.179508,121.5417262,31.18167678,北蔡镇
浦东新区,博兴路250弄,上海市浦东新区博兴路250弄,121.578757,31.269007,121.5745393,31.27118446,沪东新村街道
浦东新区,风桥村,上海市上海市浦东新区,121.583173,31.275461,121.5789595,31.27763903,沪东新村街道
浦东新区,浦东大道727弄,上海市浦东新区浦东大道727弄,121.525405,31.241116,121.5210624,31.2432041,陆家嘴街道
浦东新区,南林路658弄,上海市浦东新区南林路658弄,121.523633,31.138192,121.5192931,31.14032623,东明路街道
浦东新区,妙境路600弄,上海市浦东新区妙境路600弄,121.691149,31.189019,121.6868262,31.19111348,川沙新镇
浦东新区,浦三路288弄,上海市浦东新区浦三路288弄,121.513629,31.192742,121.5092499,31.19481952,南码头路街道
浦东新区,运通路728弄,上海市浦东新区运通路728弄,121.702232,31.20294,121.6978898,31.20500905,合庆镇
浦东新区,浦东大道3080弄,上海市浦东新区浦东大道3080弄,121.577509,31.282052,121.5732888,31.28422291,沪东新村街道
浦东新区,鹏飞路51弄,上海市浦东新区鹏飞路51弄,121.554665,31.175325,121.5504124,31.17751342,北蔡镇
浦东新区,莲溪路126弄,上海市浦东新区莲溪路126弄,121.559846,31.186811,121.5556039,31.18900277,北蔡镇
浦东新区,牡丹路399弄,上海市浦东新区牡丹路399弄,121.552252,31.208716,121.5479908,31.21088329,花木街道
浦东新区,妙栏路265弄,上海市浦东新区妙栏路265弄,121.688026,31.185404,121.6837091,31.18750588,川沙新镇
浦东新区,银山路72弄,上海市浦东新区银山路72弄,121.578621,31.242456,121.5744054,31.24464498,金杨新村街道
浦东新区,秀沿路505弄,上海市浦东新区秀沿路505弄,121.563284,31.134504,121.5590532,31.13672835,康桥镇
浦东新区,紫叶路65弄,上海市浦东新区紫叶路65弄,121.551282,31.183684,121.5470205,31.18586168,北蔡镇
浦东新区,南六公路399弄,上海市浦东新区南六公路399弄,121.712905,31.061283,121.7085601,31.06341252,宣桥镇
浦东新区,庆丰村,上海市浦东新区庆丰村,121.717056,31.241249,121.7126913,31.24327955,合庆镇
浦东新区,惠东路342弄,上海市浦东新区惠东路342弄,121.770968,31.042896,121.7666236,31.04501853,惠南镇
浦东新区,药师村,上海市浦东新区药师村,121.68283,31.202649,121.6785213,31.20475194,川沙新镇
浦东新区,华丰路50弄,上海市浦东新区华丰路50弄,121.508092,31.190886,121.5036933,31.19294806,南码头路街道
浦东新区,环庆南路239弄,上海市浦东新区环庆南路239弄,121.724786,31.229014,121.7204153,31.23104198,合庆镇
浦东新区,梓康路188弄,上海市浦东新区梓康路188弄,121.568783,31.122739,121.5645632,31.12497742,康桥镇
浦东新区,航城五路401弄,上海市浦东新区航城五路401弄,121.751492,31.144211,121.7471231,31.1462691,祝桥镇
浦东新区,崮山路626弄,上海市浦东新区崮山路626弄,121.55836,31.241316,121.5541102,31.24347929,洋泾街道
浦东新区,太平村,上海市浦东新区太平村,121.553355,31.121927,121.5491037,31.12414108,康桥镇
浦东新区,天花庵村卫家队,上海市浦东新区天花庵村卫家队,121.526015,31.127221,121.521684,31.12936769,三林镇
浦东新区,莲园路505弄,上海市浦东新区莲园路505弄,121.557831,31.185783,121.5535847,31.18797185,北蔡镇
浦东新区,南码头路1521弄,上海市浦东新区南码头路1521弄,121.518237,31.177142,121.5138754,31.1792407,周家渡街道
浦东新区,双桥路218弄,上海市浦东新区双桥路218弄,121.597176,31.28628,121.5929699,31.2884582,浦兴路街道
浦东新区,天花庵村大雪队,上海市浦东新区天花庵村,121.534302,31.122769,121.529998,31.12493995,三林镇
浦东新区,民耀路358弄,上海市浦东新区民耀路358弄,121.65386,31.268652,121.6496012,31.2707793,曹路镇
浦东新区,杨高中路10弄,上海市浦东新区杨高中路10弄,121.598243,31.257681,121.5940395,31.25987128,浦兴路街道
浦东新区,康沈路400弄,上海市浦东新区康沈路400弄,121.570875,31.139947,121.5666572,31.14217875,康桥镇
浦东新区,南新村,上海市浦东新区南新村,121.7887,30.87171,121.7843977,30.87395196,泥城镇
浦东新区,东方路2851弄,上海市浦东新区东方路2851弄,121.519514,31.195763,121.5151552,31.19785605,南码头路街道
浦东新区,祝桥村,上海市浦东新区祝桥村,121.760183,31.102764,121.7558227,31.1048464,祝桥镇
浦东新区,杨高北路1887弄,上海市浦东新区杨高北路,121.604217,31.306315,121.6000097,31.30848431,高行镇
浦东新区,沪南路3161弄,上海市浦东新区沪南路3161弄,121.568021,31.128043,121.5637994,31.13027755,康桥镇
浦东新区,众安村,上海市浦东新区众安村,121.652972,30.994828,121.6487375,30.99710149,新场镇
浦东新区,齐河路909弄,上海市浦东新区齐河路909弄,121.515784,31.184841,121.5114132,31.18692874,周家渡街道
浦东新区,沪南路4855弄,上海市浦东新区沪南路4855弄,121.590805,31.064275,121.5866147,31.06656365,航头镇
浦东新区,和平村罗家宅,上海市浦东新区和平村,121.841661,30.985554,121.8374755,30.98782058,书院镇
黄浦区,曹家街25号,上海市黄浦区曹家街|25号,121.48614,31.219174,121.4816601,31.22115679,老西门街道
黄浦区,曹家街33号,上海市黄浦区曹家街|33号,121.486251,31.219082,121.4817715,31.22106516,老西门街道
黄浦区,静修路23号,上海市黄浦区静修路|23,121.488174,31.220239,121.4837012,31.22222726,老西门街道
黄浦区,曹市弄54弄,上海市黄浦区曹市弄,121.489162,31.218888,121.4846928,31.22087982,老西门街道
黄浦区,打浦路457弄,上海市黄浦区打浦路457弄,121.473347,31.197721,121.4688256,31.19967787,五里桥街道
黄浦区,打浦路80弄,上海市黄浦区打浦路80弄,121.469611,31.20345,121.4650772,31.20539408,打浦桥街道
黄浦区,大方弄113弄,上海市黄浦区大方弄,121.484089,31.221797,121.4796017,31.22377257,豫园街道
黄浦区,大吉路44弄,上海市黄浦区大吉路,121.48185,31.212994,121.4773558,31.21496728,老西门街道
黄浦区,大林路78号,上海市黄浦区大林路78-86号,121.486889,31.213062,121.4824123,31.21504989,老西门街道
黄浦区,淡水路89弄,上海市黄浦区淡水路89弄,121.472977,31.22143,121.4684524,31.22337448,淮海中路街道
黄浦区,虹桥弄54号,上海市黄浦区虹桥弄,121.49352,31.221569,121.4890661,31.22357252,老西门街道
黄浦区,复兴东路18弄,上海市黄浦区复兴东路,121.484129,31.219581,121.4796421,31.22155773,豫园街道
黄浦区,复兴中路50号,上海市黄浦区复兴中路50号,121.481817,31.218642,121.4773222,31.2206125,淮海中路街道
黄浦区,高家弄45弄,上海市黄浦区高家弄45弄,121.489011,31.221094,121.4845411,31.22308433,老西门街道
黄浦区,国货路333弄,上海市黄浦区国货路333弄,121.493677,31.210445,121.4892247,31.21245428,半淞园路街道
黄浦区,海潮路3号,上海市黄浦区海潮路3号,121.498527,31.211012,121.4940921,31.21303556,半淞园路街道
黄浦区,海潮路93弄,上海市黄浦区海潮路93弄,121.499619,31.210542,121.4951881,31.21256906,半淞园路街道
黄浦区,庄家街92号,上海市黄浦区庄家街|92,121.488651,31.219669,121.4841799,31.22165894,老西门街道
黄浦区,海南西弄58号,上海市黄浦区海南西弄|58号,121.497095,31.210894,121.4926549,31.21291331,半淞园路街道
黄浦区,曹家街45号,上海市黄浦区曹家街|45号,121.486354,31.21893,121.4818749,31.22091353,老西门街道
黄浦区,河南南路582弄,上海市黄浦区河南南路582弄,121.490366,31.220219,121.485901,31.22221376,老西门街道
黄浦区,河南南路600弄,上海市黄浦区河南南路600弄,121.490607,31.219904,121.4861429,31.22189962,老西门街道
黄浦区,北京东路647弄,上海市黄浦区北京东路647弄,121.478079,31.238573,121.4735697,31.24052364,南京东路街道
黄浦区,曹家街55弄,上海市黄浦区曹家街55弄,121.485857,31.219313,121.4813761,31.22129489,老西门街道
黄浦区,静修路76号,上海市黄浦区静修路|76,121.48738,31.219726,121.4829045,31.22171217,老西门街道
黄浦区,半淞园路178号,上海市黄浦区半淞园路|178号,121.497624,31.205001,121.4931863,31.20702474,半淞园路街道
黄浦区,保屯路288弄,上海市黄浦区保屯路288弄,121.493912,31.201089,121.4894613,31.2031035,半淞园路街道
黄浦区,河南南路612弄,上海市黄浦区河南南路612弄,121.490738,31.219451,121.4862744,31.22144723,老西门街道
黄浦区,静修路86号,上海市黄浦区静修路|86,121.487166,31.219651,121.4826897,31.22163657,老西门街道
黄浦区,河南南路655弄,上海市黄浦区河南南路655弄,121.491899,31.218181,121.4874396,31.22018128,老西门街道
黄浦区,淮海中路282号,上海市黄浦区淮海中路282号,121.474764,31.223687,121.470245,31.2256353,淮海中路街道
黄浦区,黄家路99弄,上海市黄浦区黄家路99弄,121.496745,31.215949,121.4923032,31.21796484,小东门街道
黄浦区,黄家阙路114号,上海市黄浦区黄家阙路|114,121.487847,31.214251,121.4833736,31.21624114,老西门街道
黄浦区,徽宁路411号,上海市黄浦区徽宁路411号,121.488845,31.209969,121.4843755,31.21196413,半淞园路街道
黄浦区,徽宁路6弄,上海市黄浦区徽宁路6弄,121.49588,31.211594,121.4914355,31.21360933,半淞园路街道
黄浦区,高家弄32号,上海市黄浦区高家弄|32,121.488774,31.221062,121.4843033,31.22305165,老西门街道
黄浦区,徽宁路513号,上海市黄浦区徽宁路513号,121.487994,31.209385,121.4835215,31.2113779,半淞园路街道
黄浦区,建国东路328弄,上海市黄浦区建国东路328弄,121.476706,31.213023,121.4721943,31.21498171,淮海中路街道
黄浦区,江西中路412弄,上海市黄浦区江西中路412弄,121.485868,31.241355,121.4813853,31.24332674,外滩街道
黄浦区,金陵东路183弄,上海市黄浦区金陵东路183弄,121.488443,31.230103,121.4839703,31.23208745,外滩街道
黄浦区,静修路10弄,上海市黄浦区静修路10弄,121.488495,31.219685,121.4840234,31.22167447,老西门街道
黄浦区,静修路114弄,上海市黄浦区静修路114弄,121.487301,31.219146,121.4828252,31.22113221,老西门街道
黄浦区,曹市弄58号,上海市黄浦区曹市弄|58号,121.489353,31.218596,121.4848845,31.22058852,老西门街道
黄浦区,西藏南路1374弄,上海市黄浦区西藏南路1374弄,121.48611,31.205538,121.4816312,31.20752722,半淞园路街道
黄浦区,曹市弄66弄,上海市黄浦区曹市弄,121.489162,31.218888,121.4846928,31.22087982,老西门街道
黄浦区,静修路126弄,上海市黄浦区静修路126弄,121.486528,31.219425,121.4820495,31.22140881,老西门街道
黄浦区,静修路37弄,上海市黄浦区静修路37弄,121.487719,31.220409,121.4832446,31.22239584,老西门街道
黄浦区,河南南路747号,上海市黄浦区河南南路747号,121.492806,31.215713,121.4883501,31.21771716,老西门街道
黄浦区,静修路43号,上海市黄浦区静修路|43,121.486925,31.219148,121.4824479,31.2211331,老西门街道
黄浦区,庄家街79弄,上海市黄浦区庄家街79弄,121.488849,31.219752,121.4843786,31.22174249,老西门街道
黄浦区,高家弄54弄,上海市黄浦区高家弄54弄,121.488987,31.220751,121.484517,31.22274142,老西门街道
黄浦区,海潮路240弄,上海市黄浦区海潮路240弄,121.497119,31.207731,121.4926793,31.2097519,半淞园路街道
黄浦区,高家弄66弄,上海市黄浦区高家弄66弄,121.489158,31.220703,121.4846887,31.22269395,老西门街道
黄浦区,静修路49号,上海市黄浦区静修路|49,121.487772,31.220088,121.4832978,31.22207515,老西门街道
黄浦区,梦花街163弄,上海市黄浦区梦花街163弄,121.486555,31.218823,121.4820766,31.22080717,老西门街道
黄浦区,梦花街28弄,上海市黄浦区梦花街,121.487631,31.218908,121.4831564,31.22089529,老西门街道
黄浦区,静修路64弄,上海市黄浦区静修路64弄,121.487727,31.219854,121.4832527,31.22184113,老西门街道
黄浦区,静修路83号,上海市黄浦区静修路|83,121.487214,31.219816,121.4827379,31.22180164,老西门街道
黄浦区,丽园路842弄,上海市黄浦区丽园路842弄,121.476161,31.20583,121.4716481,31.20779065,打浦桥街道
黄浦区,柳江街16弄,上海市黄浦区柳江街16弄,121.489416,31.219379,121.4849477,31.22137134,老西门街道
黄浦区,柳江街19号,上海市黄浦区柳江街|19号,121.490016,31.219058,121.4855498,31.22105227,老西门街道
黄浦区,鲁班路277弄,上海市黄浦区鲁班路277弄,121.475631,31.20479,121.4711165,31.20674969,打浦桥街道
黄浦区,梦花街13弄,上海市黄浦区梦花街13弄,121.489152,31.219816,121.4846827,31.22180735,老西门街道
黄浦区,鲁班路88弄,上海市黄浦区鲁班路88弄,121.472898,31.207036,121.4683743,31.20898712,打浦桥街道
黄浦区,陆家浜路1295号,上海市黄浦区陆家浜路1295号,121.483913,31.211904,121.479426,31.21388375,老西门街道
黄浦区,陆家浜路521弄,上海市黄浦区陆家浜路521弄,121.497774,31.212924,121.4933362,31.21494438,小东门街道
黄浦区,西仓桥街105号,上海市黄浦区西仓桥街|105号,121.489477,31.220327,121.4850088,31.22231907,老西门街道
黄浦区,西仓桥街112弄,上海市黄浦区西仓桥街112弄,121.489773,31.220399,121.4853059,31.22239192,老西门街道
黄浦区,陆家浜路804弄,上海市黄浦区陆家浜路804弄,121.492913,31.212023,121.4884578,31.21402924,半淞园路街道
黄浦区,蒙自路25号,上海市黄浦区蒙自路25号,121.476881,31.208655,121.4723703,31.21061629,打浦桥街道
黄浦区,梦花街11号,上海市黄浦区梦花街|11,121.489339,31.219681,121.4848704,31.22167297,老西门街道
黄浦区,梦花街141弄,上海市黄浦区梦花街141弄,121.48701,31.218726,121.4825332,31.22071155,老西门街道
黄浦区,静修路50弄,上海市黄浦区静修路50弄,121.487864,31.219528,121.4833902,31.22151568,老西门街道
黄浦区,西仓桥街161弄,上海市黄浦区西仓桥街161弄,121.489006,31.220236,121.4845362,31.22222672,老西门街道
黄浦区,静修路60号,上海市黄浦区静修路|60,121.487055,31.219064,121.4825784,31.22104952,老西门街道
黄浦区,梦花街151号,上海市黄浦区梦花街|151,121.487246,31.21849,121.4827701,31.22047636,老西门街道
黄浦区,瞿溪路31号,上海市黄浦区瞿溪路|31,121.496414,31.207194,121.4919718,31.20921304,半淞园路街道
黄浦区,梦花街15号,上海市黄浦区梦花街|15号,121.488718,31.218586,121.4842473,31.22057665,老西门街道
黄浦区,梦花街40号,上海市黄浦区梦花街|40,121.488948,31.219353,121.484478,31.22134397,老西门街道
黄浦区,西藏南路1501弄,上海市黄浦区西藏南路1501弄,121.489863,31.203065,121.4853977,31.20506648,半淞园路街道
黄浦区,庄家街103号,上海市黄浦区庄家街|103,121.488888,31.219684,121.4844178,31.22167463,老西门街道
黄浦区,梦花街78弄,上海市黄浦区梦花街78弄,121.488722,31.218483,121.4842513,31.22047371,老西门街道
黄浦区,宁海东路279弄,上海市黄浦区宁海东路279弄,121.480175,31.227814,121.4756738,31.22977551,外滩街道
黄浦区,静修路79弄,上海市黄浦区静修路79弄,121.487189,31.220159,121.4827127,31.2221444,老西门街道
黄浦区,蓬莱路257号,上海市黄浦区蓬莱路|257,121.489891,31.217604,121.4854245,31.21959859,老西门街道
黄浦区,蓬莱路295号,上海市黄浦区蓬莱路295号,121.489214,31.21734,121.4847451,31.2193327,老西门街道
黄浦区,庄家街84号,上海市黄浦区庄家街|84,121.488651,31.219742,121.4841799,31.2217319,老西门街道
黄浦区,蓬莱路413号,上海市黄浦区蓬莱路|413,121.487484,31.216422,121.4830091,31.21841004,老西门街道
黄浦区,普育东路101弄,上海市黄浦区普育东路101弄,121.496227,31.209904,121.4917839,31.21192118,半淞园路街道
黄浦区,庄家街49号,上海市黄浦区庄家街|49号,121.488514,31.220389,121.4840424,31.2223782,老西门街道
黄浦区,瞿溪路1111弄,上海市黄浦区瞿溪路1111弄,121.474011,31.20035,121.4694915,31.2023074,五里桥街道
黄浦区,中华路868弄,上海市黄浦区中华路868弄,121.495055,31.214645,121.4906073,31.21665639,老西门街道
黄浦区,瞿溪路1200弄,上海市黄浦区瞿溪路1200弄,121.472642,31.197327,121.4681183,31.19928216,五里桥街道
黄浦区,瞿溪路904弄,上海市黄浦区瞿溪路904弄,121.479238,31.199816,121.474736,31.2017882,五里桥街道
黄浦区,庄家街51弄,上海市黄浦区庄家街51弄,121.488694,31.22023,121.4842231,31.2222198,老西门街道
黄浦区,庄家街68号,上海市黄浦区庄家街|68,121.488451,31.219988,121.4839792,31.2219772,老西门街道
黄浦区,瑞金南路345弄,上海市黄浦区瑞金南路345弄,121.469873,31.197221,121.4653405,31.19916882,五里桥街道
黄浦区,绍兴路60号,上海市黄浦区绍兴路|60,121.463863,31.209468,121.4593111,31.21139447,瑞金二路街道
黄浦区,顺昌路612弄30号,上海市黄浦区顺昌路612弄|30号,121.478931,31.210819,121.474427,31.212785,打浦桥街道
黄浦区,四川中路668号,上海市黄浦区四川中路668号,121.48428,31.242406,121.4797917,31.24437264,外滩街道
黄浦区,天津路179弄,上海市黄浦区天津路179弄,121.482874,31.237992,121.4783812,31.23995656,外滩街道
黄浦区,静修路101弄,上海市黄浦区静修路,121.486472,31.219492,121.4819933,31.22147561,老西门街道
黄浦区,万竹街30弄,上海市黄浦区万竹街,121.484773,31.224065,121.4802879,31.2260415,豫园街道
黄浦区,四牌楼路116号,上海市黄浦区四牌楼路|116号,121.495151,31.223536,121.4907028,31.22554348,豫园街道
黄浦区,文庙路33号,上海市黄浦区文庙路|33,121.490217,31.21914,121.4857516,31.22113483,老西门街道
黄浦区,文庙路60弄,上海市黄浦区文庙路60弄,121.490484,31.218914,121.4860195,31.22090973,老西门街道
黄浦区,西仓桥街159号,上海市黄浦区西仓桥街|159号,121.489033,31.220327,121.4845632,31.22231776,老西门街道
黄浦区,西仓桥街162弄,上海市黄浦区西仓桥街162弄,121.489358,31.22015,121.4848894,31.2221418,老西门街道
黄浦区,西藏南路1371弄,上海市黄浦区西藏南路1371弄,121.48824,31.205791,121.4837687,31.20778636,半淞园路街道
黄浦区,庄家街43号,上海市黄浦区庄家街,121.488673,31.21988,121.484202,31.2218699,老西门街道
黄浦区,庄家街45弄,上海市黄浦区庄家街45弄,121.488548,31.220472,121.4840765,31.22246126,老西门街道
黄浦区,西藏南路699弄,上海市黄浦区西藏南路699弄,121.484556,31.217842,121.4800707,31.21982079,老西门街道
黄浦区,县左街32号,上海市黄浦区县左街32号,121.494581,31.224415,121.4901307,31.22642036,豫园街道
黄浦区,小桃园街18弄,上海市黄浦区小桃园街,121.48952,31.22126,121.4850519,31.22325176,老西门街道
黄浦区,斜土路352弄,上海市徐汇区斜土路,121.46225,31.19812,121.4576943,31.20004801,斜土路街道
黄浦区,斜土路80弄,上海市黄浦区斜土路80弄,121.48369,31.205486,121.4792028,31.2074682,五里桥街道
黄浦区,新昌路220号,上海市黄浦区新昌路220号,121.468766,31.234838,121.4642268,31.23676505,南京东路街道
黄浦区,学宫街23弄,上海市黄浦区学宫街23弄,121.48843,31.21866,121.4839583,31.22064976,老西门街道
黄浦区,学宫街43弄,上海市黄浦区学宫街43弄,121.488367,31.218432,121.483895,31.22042168,老西门街道
黄浦区,学西街19号,上海市黄浦区学西街19号,121.48722,31.217281,121.4827441,31.21926785,老西门街道
黄浦区,学院路97号,上海市黄浦区学院路|97,121.495579,31.223297,121.4911324,31.22530588,小东门街道
黄浦区,迎勋路100弄,上海市黄浦区迎勋路100弄,121.491173,31.21295,121.4867115,31.21495061,老西门街道
黄浦区,永宁街55号,上海市黄浦区永宁街|55,121.488492,31.215619,121.4840207,31.21761039,老西门街道
黄浦区,永寿路50号,上海市黄浦区永寿路50号,121.48101,31.229434,121.4765115,31.23139714,外滩街道
黄浦区,永泰街43号,上海市黄浦区永泰街|43号,121.497479,31.215728,121.4930399,31.21774615,小东门街道
黄浦区,制造局路567弄,上海市黄浦区制造局路567弄,121.486459,31.203798,121.4819816,31.20578908,半淞园路街道
黄浦区,中华路429弄,上海市黄浦区中华路429弄,121.497516,31.218043,121.4930768,31.22006017,小东门街道
黄浦区,中山南路1358弄,上海市黄浦区中山南路1358弄,121.499641,31.210531,121.4952101,31.21255814,半淞园路街道
黄浦区,陆家浜路468弄,上海市黄浦区陆家浜路468弄,121.49739,31.210457,121.492951,31.2124774,半淞园路街道
黄浦区,中山南路1701号,上海市黄浦区中山南路1701号,121.494073,31.204085,121.4896226,31.20609853,半淞园路街道
黄浦区,曹市弄23弄,上海市黄浦区曹市弄,121.489162,31.218888,121.4846928,31.22087982,老西门街道
黄浦区,中山南路1893号,上海市黄浦区中山南路1893号楼,121.490701,31.201687,121.4862388,31.20369164,半淞园路街道
黄浦区,庄家街18弄,上海市黄浦区庄家街18弄,121.487896,31.220688,121.4834222,31.22267523,老西门街道
黄浦区,庄家街34号,上海市黄浦区庄家街|34号,121.488413,31.220483,121.483941,31.22247185,老西门街道
黄浦区,庄家街78号,上海市黄浦区庄家街|78,121.488581,31.219914,121.4841097,31.22190362,老西门街道
黄浦区,梦花街161号,上海市黄浦区梦花街|161,121.486873,31.218566,121.4823958,31.22055122,老西门街道
黄浦区,梦花街35号,上海市黄浦区梦花街35号,121.48902,31.219337,121.4845503,31.22132819,老西门街道
黄浦区,河南南路592弄,上海市黄浦区河南南路592弄,121.4906,31.22016,121.4861358,31.22215548,老西门街道
黄浦区,瞿溪路57号,上海市黄浦区瞿溪路57号,121.496155,31.207287,121.4917118,31.20930522,半淞园路街道
静安区,普善路铁路新村34号,上海市静安区铁路新村|34号楼,121.454949,31.255704,121.450368,31.25758826,天目西路街道
静安区,康定路367弄,上海市静安区康定路367弄,121.449389,31.234571,121.4447958,31.23645299,江宁路街道
静安区,汾西路260弄,上海市静安区汾西路260弄,121.463002,31.314604,121.4584384,31.31648303,临汾路街道
静安区,升平街27号,上海市静安区升平街|27,121.461229,31.225176,121.456668,31.22708859,南京西路街道
静安区,南阳路183弄,上海市静安区南阳路183弄,121.450879,31.227474,121.4462901,31.22936231,南京西路街道
静安区,延安中路504弄,上海市静安区延安中路504弄,121.464064,31.22498,121.4595113,31.22689962,南京西路街道
静安区,石门一路49弄,上海市静安区石门一路49弄,121.462878,31.224853,121.4583218,31.22676974,南京西路街道
静安区,长临路61弄,上海市静安区长临路61弄,121.439121,31.312678,121.4344987,31.31450852,彭浦新村街道
静安区,保德路1316弄,上海市静安区保德路1316弄,121.442462,31.314746,121.4378462,31.31658136,彭浦新村街道
静安区,三泉路821弄,上海市静安区三泉路821弄,121.439538,31.315517,121.4349163,31.31734712,彭浦新村街道
静安区,共和新路4470弄,上海市静安区共和新路4470弄,121.447651,31.312728,121.4430469,31.31457373,彭浦新村街道
静安区,场中路2018号,上海市静安区场中路2018号,121.452181,31.304738,121.4475886,31.30659601,彭浦新村街道
静安区,广中西路1097号,上海市静安区广中西路1097号,121.434864,31.274727,121.4302372,31.27656617,彭浦镇
静安区,沪太路935弄,上海市静安区沪太路935弄,121.431909,31.27377,121.4272774,31.2756055,彭浦镇
静安区,康定东路33弄,上海市静安区康定东路33弄,121.457036,31.236985,121.4524622,31.23888231,石门二路街道
静安区,康定东路27号,上海市静安区康定东路27号,121.457192,31.237054,121.4526187,31.23895164,石门二路街道
静安区,康定东路13弄,上海市静安区康定东路13弄,121.457433,31.237174,121.4528603,31.23907214,石门二路街道
静安区,北京西路605弄,上海市静安区北京西路605弄,121.463148,31.232854,121.4585919,31.2347677,石门二路街道
静安区,场中路2380弄,上海市静安区场中路2380弄,121.444926,31.304746,121.4403164,31.30658962,彭浦镇
静安区,原平路737号,上海市静安区原平路737号,121.431543,31.291837,121.4269092,31.2936646,彭浦镇
静安区,场中路2828弄,上海市静安区场中路2828弄,121.439574,31.304309,121.4349533,31.30614347,彭浦镇
静安区,场中路2800弄,上海市静安区场中路2800弄,121.440876,31.303683,121.4362579,31.30551987,彭浦镇
静安区,场中路3117弄,上海市静安区场中路3117号,121.431845,31.306158,121.4272105,31.30798035,大场镇
静安区,万航渡路661弄,上海市静安区万航渡路661弄,121.432791,31.227391,121.4281648,31.22924822,曹家渡街道
静安区,延平路123弄,上海市静安区延平路123弄,121.440625,31.228282,121.436013,31.23015069,曹家渡街道
静安区,万航渡路829弄,上海市静安区万航渡路829弄,121.430604,31.228145,121.4259744,31.22999901,曹家渡街道
静安区,武定路1102号,上海市静安区武定路1102号,121.441303,31.229722,121.4366922,31.23159117,曹家渡街道
静安区,武定西路1158弄,上海市静安区武定西路1158弄,121.435871,31.227097,121.4312501,31.22895872,曹家渡街道
静安区,万航渡路676弄,上海市静安区万航渡路676弄,121.431514,31.226068,121.4268859,31.22792414,曹家渡街道
静安区,余姚路487弄,上海市静安区余姚路487弄,121.435114,31.233293,121.4304912,31.23515075,曹家渡街道
静安区,万航渡路677号,上海市静安区万航渡路677号,121.432752,31.226853,121.4281258,31.22871042,曹家渡街道
静安区,长寿路999弄,上海市静安区长寿路999弄,121.429099,31.230596,121.4244669,31.23244703,曹家渡街道
静安区,武宁南路88弄,上海市静安区武宁南路88弄,121.43707,31.226769,121.4324513,31.22863269,曹家渡街道
静安区,延平路340弄,上海市静安区延平路340弄,121.43885,31.232189,121.4342342,31.23405297,曹家渡街道
静安区,闻喜路930弄,上海市静安区闻喜路930弄,121.447937,31.308111,121.443334,31.30995906,彭浦新村街道
静安区,西宝兴路940号,上海市虹口区西宝兴路|940号,121.46781,31.27007,121.4632648,31.27197902,共和新路街道
静安区,常熟路104弄,上海市静安区常熟路104弄,121.44755,31.216641,121.442954,31.21852771,静安寺街道
静安区,江杨南路466弄,上海市静安区江杨南路466弄,121.46807,31.316591,121.4635216,31.31848209,临汾路街道
静安区,西宝兴路922弄,上海市静安区西宝兴路922弄,121.46774,31.269446,121.4631946,31.2713551,共和新路街道
静安区,宝通路389号,上海市静安区宝通路389号,121.476232,31.259109,121.4717148,31.26104534,宝山路街道
静安区,汾西路739号,上海市静安区汾西路739号,121.452015,31.313327,121.4474215,31.31518136,彭浦新村街道
静安区,芷江中路373号,上海市静安区芷江中路373号,121.47093,31.259774,121.4663955,31.26169563,宝山路街道
静安区,芷江中路361号,上海市静安区芷江中路361号,121.471391,31.259993,121.4668579,31.26191576,宝山路街道
静安区,通阁路135弄,上海市静安区通阁路135弄,121.470808,31.259149,121.4662732,31.26107058,宝山路街道
静安区,共和新路1158号,上海市静安区共和新路1158号,121.46012,31.261454,121.4555527,31.26334761,共和新路街道
静安区,通阁路188号,上海市静安区通阁路188号,121.470638,31.26013,121.4661025,31.2620507,宝山路街道
静安区,武定路650弄,上海市静安区武定路,121.455311,31.235265,121.4507328,31.23715922,江宁路街道
静安区,运城路588号,上海市静安区运城路|588号,121.43318,31.275527,121.4285503,31.27736347,彭浦镇
静安区,中山北路805弄,上海市静安区中山北路805弄,121.457676,31.262,121.4531018,31.26388767,共和新路街道
静安区,茂名北路90弄,上海市静安区茂名北路90弄,121.460836,31.225621,121.4562738,31.22753243,南京西路街道
静安区,万航渡路92号,上海市静安区万航渡路92号,121.442752,31.2243,121.4381447,31.22617421,静安寺街道
静安区,场中路2600弄,上海市静安区场中路2600弄,121.441147,31.307729,121.4365291,31.30956477,彭浦新村街道
静安区,晋元路237号,上海市静安区晋元路237号,121.47003,31.244259,121.465494,31.2461851,北站街道
静安区,少年村路535号,上海市宝山区少年村路|535号,121.429573,31.300779,121.4249355,31.30260057,彭浦镇
静安区,康定路501弄,上海市静安区康定路,121.442882,31.231994,121.4382743,31.23386486,江宁路街道
静安区,新闸路1550弄,上海市静安区新闸路,121.459005,31.234572,121.4544369,31.23647496,石门二路街道
静安区,平顺路721弄,上海市静安区平顺路721弄,121.45138,31.317315,121.4467845,31.31916653,彭浦新村街道
静安区,康定东路9号,上海市静安区康定东路|9号,121.457323,31.236823,121.45275,31.23872104,石门二路街道
静安区,洛川东路161号,上海市静安区洛川东路161号,121.46448,31.271801,121.4599245,31.27370081,共和新路街道
静安区,普善路铁路新村18号,上海市静安区铁路新村|18号楼,121.454871,31.256097,121.4502898,31.25798092,天目西路街道
静安区,毛家弄26号,上海市静安区毛家弄|26号,121.452921,31.25711,121.4483346,31.25898924,天目西路街道
静安区,共康四村12号,上海市静安区共康四村|12号楼,121.436642,31.316054,121.4320147,31.31787936,彭浦新村街道
静安区,场中路3115号,上海市静安区场中路3115号,121.433186,31.30417,121.4285538,31.30599492,彭浦镇
静安区,安远路899弄,上海市静安区安远路899弄,121.431995,31.234324,121.427367,31.23617696,曹家渡街道
静安区,虬江路997弄,上海市静安区虬江路997弄,121.473761,31.252113,121.4692363,31.25404561,宝山路街道
静安区,万荣一路90号,上海市静安区万荣一路90号,121.444716,31.299748,121.4401064,31.30159319,大宁路街道
静安区,广中西路99弄,上海市静安区广中西路99弄,121.449996,31.280068,121.4454004,31.28193136,大宁路街道
静安区,大宁路540弄,上海市静安区大宁路540弄,121.45002,31.272789,121.445425,31.27465545,大宁路街道
静安区,广延路1199弄,上海市静安区广延路1199弄,121.456787,31.291393,121.4522079,31.29326637,大宁路街道
静安区,延安中路540弄,上海市静安区延安中路540弄,121.463699,31.224652,121.4591453,31.22657086,南京西路街道
静安区,新丰路607号,上海市静安区新丰路|607号,121.439941,31.236928,121.4353269,31.23879158,江宁路街道
静安区,西藏北路985弄,上海市静安区西藏北路985弄,121.465864,31.260379,121.4613137,31.26228719,芷江西路街道
静安区,永兴路928弄,上海市静安区永兴路928弄,121.459683,31.250654,121.4551154,31.25255131,芷江西路街道
静安区,永兴小马路18号,上海市静安区永兴小马路18号,121.464124,31.250368,121.4595693,31.2522762,芷江西路街道
静安区,大统路938弄,上海市静安区大统路938弄,121.458814,31.255455,121.4542436,31.25734815,芷江西路街道
静安区,彭浦新村107号,上海市静安区彭浦新村|107,121.452194,31.310047,121.4476012,31.31190299,彭浦新村街道
静安区,彭浦新村398号,上海市静安区彭浦新村398甲号楼,121.452573,31.310177,121.4479812,31.31203374,彭浦新村街道
静安区,汾西路815弄,上海市静安区汾西路815弄,121.450857,31.312711,121.4462606,31.31456318,彭浦新村街道
静安区,临汾路1565弄,上海市静安区临汾路1565弄,121.437511,31.309514,121.4328859,31.31134317,彭浦新村街道
静安区,延平路85号,上海市静安区延平路|85号,121.441329,31.228101,121.4367184,31.22997097,曹家渡街道
静安区,平顺路180弄,上海市静安区平顺路180弄,121.453429,31.316267,121.4488388,31.31812327,彭浦新村街道
静安区,石门二路503号,上海市静安区石门二路503号,121.458292,31.2375,121.4537217,31.23939996,石门二路街道
静安区,沪太路1051弄,上海市静安区沪太路1051弄,121.428825,31.276774,121.4241885,31.27860439,彭浦镇
静安区,广中西路1173号,上海市静安区广中西路1173号,121.432756,31.273433,121.4281258,31.27526977,彭浦镇
静安区,柳营路319弄,上海市静安区柳营路319弄,121.462956,31.267704,121.4583964,31.26960177,共和新路街道
静安区,洛川东路37号,上海市静安区洛川东路37号,121.465688,31.272592,121.4611361,31.27449452,共和新路街道
静安区,石门一路333弄,上海市静安区石门一路333弄,121.461752,31.229622,121.4571921,31.23153378,南京西路街道
静安区,万航渡路623弄,上海市静安区万航渡路623弄,121.433541,31.226861,121.4289161,31.22871949,曹家渡街道
静安区,恒丰路55号,上海市静安区恒丰路55号,121.458345,31.240041,121.4537746,31.24193993,天目西路街道
静安区,中兴路289号,上海市静安区中兴路289号,121.478063,31.256173,121.4735522,31.25811574,宝山路街道
静安区,康定路313号,上海市静安区康定路|313,121.44937,31.232849,121.4447769,31.23473175,江宁路街道
静安区,晋元路88弄,上海市静安区晋元路88弄,121.470123,31.241162,121.4655875,31.24308974,北站街道
静安区,彭浦新村404号,上海市静安区彭浦新村|404,121.454806,31.308829,121.4502201,31.31069109,彭浦新村街道
静安区,共和新路3650弄,上海市静安区共和新路3650弄,121.448202,31.303995,121.4436,31.30584517,彭浦镇
静安区,康定路775号,上海市静安区康定路775-1号,121.442331,31.231679,121.4377222,31.23354904,江宁路街道
静安区,昌化路453弄,上海市静安区昌化路453弄,121.450172,31.238835,121.4455804,31.24071664,江宁路街道
静安区,康定路389号,上海市静安区康定路|389,121.448763,31.234358,121.4441683,31.23623884,江宁路街道
静安区,常德路500弄,上海市静安区常德路500弄,121.447016,31.230339,121.4424176,31.23221827,江宁路街道
静安区,西康路838号,上海市静安区西康路838号,121.444151,31.237939,121.4395455,31.23980942,江宁路街道
静安区,汾西路885弄,上海市静安区汾西路885弄,121.450188,31.312467,121.44559,31.3143179,彭浦新村街道
静安区,天目中路268号,上海市静安区天目中路,121.466779,31.244626,121.4622328,31.24654347,北站街道
静安区,灵石路737弄,上海市静安区灵石路737弄,121.438483,31.285021,121.4338619,31.28686139,彭浦镇
静安区,武定路801弄,上海市静安区武定路,121.455311,31.235265,121.4507328,31.23715922,江宁路街道
静安区,宝昌路600弄,上海市静安区宝昌路600弄,121.472316,31.260589,121.4677859,31.26251399,宝山路街道
静安区,洛川中路1100弄,上海市静安区洛川中路1100弄,121.450014,31.264016,121.4454198,31.26588618,共和新路街道
徐汇区,宾南路19弄,上海市徐汇区宾南路19弄,121.43513,31.160798,121.4305136,31.16269132,漕河泾街道
徐汇区,宾阳路50弄,上海市徐汇区宾阳路50弄,121.437266,31.164475,121.4326531,31.16636961,漕河泾街道
徐汇区,宾阳路28弄,上海市徐汇区宾阳路28弄,121.435863,31.164548,121.4312475,31.16644045,漕河泾街道
徐汇区,漕溪四村,上海市徐汇区漕溪四村,121.4398,31.171446,121.4351913,31.17334107,漕河泾街道
徐汇区,龙华西路535弄,上海市徐汇区龙华西路535弄,121.44203,31.176558,121.4374253,31.17845424,漕河泾街道
徐汇区,漕溪一村,上海市徐汇区漕溪一村,121.439492,31.172424,121.4348826,31.17431807,漕河泾街道
徐汇区,漕溪三村,上海市徐汇区漕溪三村,121.437383,31.170529,121.4327698,31.17242068,漕河泾街道
徐汇区,漕溪二村,上海市徐汇区漕溪二村,121.437241,31.17173,121.4326274,31.17362085,漕河泾街道
徐汇区,漕溪路199号,上海市徐汇区漕溪路199号,121.435495,31.173065,121.4308781,31.17495254,漕河泾街道
徐汇区,康健路100弄,上海市徐汇区康健路100弄,121.427054,31.165332,121.4224248,31.16721264,漕河泾街道
徐汇区,康健路24弄,上海市徐汇区康健路24弄,121.43132,31.16516,121.4266969,31.16704584,漕河泾街道
徐汇区,康健路25弄,上海市徐汇区康健路25弄,121.432453,31.166874,121.4278316,31.16876044,漕河泾街道
徐汇区,龙漕路135弄,上海市徐汇区龙漕路135弄,121.439025,31.170921,121.4344148,31.17281508,漕河泾街道
徐汇区,龙漕路51弄,上海市徐汇区龙漕路51弄,121.437472,31.169224,121.432859,31.17111649,漕河泾街道
徐汇区,龙漕路58弄,上海市徐汇区龙漕路58弄,121.437037,31.168469,121.4324233,31.17036121,漕河泾街道
徐汇区,龙川北路800弄,上海市徐汇区龙川北路800弄,121.435438,31.151872,121.4308229,31.15377042,漕河泾街道
徐汇区,龙华西路315弄,上海市徐汇区龙华西路315弄,121.443059,31.174774,121.4384567,31.17667295,漕河泾街道
徐汇区,龙华西路591弄,上海市徐汇区龙华西路591弄,121.440631,31.176378,121.4360235,31.17827194,漕河泾街道
徐汇区,龙吴路13弄,上海市徐汇区龙吴路13弄,121.443513,31.173279,121.4389118,31.17517952,漕河泾街道
徐汇区,罗城路700弄,上海市徐汇区罗城路700弄,121.434441,31.149614,121.4298243,31.15151217,漕河泾街道
徐汇区,南宁路501弄,上海市徐汇区南宁路501弄,121.444045,31.164912,121.4394456,31.16681777,漕河泾街道
徐汇区,钦州大厦,上海市徐汇区钦州大厦,121.431384,31.161536,121.4267613,31.16342379,漕河泾街道
徐汇区,钦州路111弄,上海市徐汇区钦州路111弄,121.432025,31.162218,121.4274033,31.16410628,漕河泾街道
徐汇区,石龙路33弄,上海市徐汇区石龙路33弄,121.448491,31.157679,121.4439023,31.15959695,漕河泾街道
徐汇区,石龙路411弄,上海市徐汇区石龙路411弄,121.438694,31.154408,121.4340846,31.15631009,漕河泾街道
徐汇区,田东路258弄,上海市徐汇区田东路258弄,121.439279,31.174461,121.434669,31.17635368,漕河泾街道
徐汇区,爱华公寓,上海市徐汇区爱华公寓,121.449466,31.186077,121.4448772,31.1879824,枫林路街道
徐汇区,东安五村,上海市徐汇区东安五村,121.451583,31.18426,121.4469996,31.18617066,枫林路街道
徐汇区,东安二村,上海市徐汇区东安二村,121.454396,31.188073,121.4498194,31.18998778,枫林路街道
徐汇区,东安路13弄,上海市徐汇区东安路,121.455668,31.189215,121.4510947,31.19113203,枫林路街道
徐汇区,东安路180弄,上海市徐汇区东安路180弄,121.452434,31.193997,121.4478519,31.19590462,枫林路街道
徐汇区,东安路240弄,上海市徐汇区东安路240弄,121.452874,31.192503,121.4482931,31.19441229,枫林路街道
徐汇区,东安四村,上海市徐汇区东安四村,121.451339,31.186922,121.4467547,31.18883082,枫林路街道
徐汇区,东安一村,上海市徐汇区东安一村,121.458485,31.18792,121.4539195,31.18984409,枫林路街道
徐汇区,枫林路333号,上海市徐汇区枫林路333号,121.457359,31.192746,121.45279,31.1946651,枫林路街道
徐汇区,龙华路1881弄,上海市徐汇区龙华路1881弄,121.454538,31.184078,121.4499621,31.18599509,枫林路街道
徐汇区,龙华路2381弄,上海市徐汇区龙华路2381弄,121.451568,31.181632,121.4469848,31.18354395,枫林路街道
徐汇区,龙山新村,上海市徐汇区龙山新村,121.445813,31.184286,121.4412159,31.18618518,枫林路街道
徐汇区,平江路145弄,上海市徐汇区平江路145弄,121.454376,31.199281,121.4497984,31.20119021,枫林路街道
徐汇区,中山南二路918弄,上海市徐汇区中山南二路918弄,121.448508,31.185353,121.443917,31.18725685,枫林路街道
徐汇区,天钥桥路968弄,上海市徐汇区天钥桥路968弄,121.44468,31.17861,121.4400808,31.18050993,枫林路街道
徐汇区,天钥新村,上海市徐汇区天钥新村,121.446669,31.18748,121.4420735,31.18937921,枫林路街道
徐汇区,天钥桥路905弄,上海市徐汇区天钥桥路905弄,121.447701,31.180151,121.4431085,31.18205588,枫林路街道
徐汇区,宛南一村,上海市徐汇区宛南一村,121.450615,31.184111,121.4460292,31.18601973,枫林路街道
徐汇区,宛平南路65弄,上海市徐汇区宛平南路65弄,121.448011,31.190464,121.4434184,31.19236432,枫林路街道
徐汇区,小木桥路440弄,上海市徐汇区小木桥路440弄,121.459,31.194036,121.4544354,31.19595825,枫林路街道
徐汇区,斜土路2183弄,上海市徐汇区斜土路2183弄,121.448739,31.192889,121.4441479,31.19478956,枫林路街道
徐汇区,宛平南路255弄,上海市徐汇区宛平南路255弄,121.446903,31.193218,121.4423076,31.19511481,枫林路街道
徐汇区,中山南二路1057弄,上海市徐汇区中山南二路1057弄,121.444304,31.179398,121.4397039,31.18129684,枫林路街道
徐汇区,中山南二路937弄,上海市徐汇区中山南二路937弄,121.449301,31.183073,121.4447121,31.18497958,枫林路街道
徐汇区,中山南二路999弄,上海市徐汇区中山南二路999弄,121.446169,31.181324,121.4415729,31.18322534,枫林路街道
徐汇区,古美路1107弄,上海市徐汇区古美路1107弄,121.398228,31.154419,121.3935836,31.15629207,虹梅路街道
徐汇区,桂林路402号,上海市徐汇区桂林路402号,121.416131,31.171835,121.4114899,31.17370291,虹梅路街道
徐汇区,桂林路666弄,上海市徐汇区桂林路666弄,121.413644,31.18155,121.4090004,31.18341159,虹梅路街道
徐汇区,乌鲁木齐中路99弄,上海市徐汇区乌鲁木齐中路99弄,121.444941,31.215297,121.4403392,31.2171794,湖南路街道
徐汇区,五原路50弄,上海市徐汇区五原路50弄,121.448386,31.213849,121.4437922,31.21573868,湖南路街道
徐汇区,新乐路143弄,上海市徐汇区新乐路143弄,121.45476,31.217313,121.4501819,31.21921437,湖南路街道
徐汇区,华发路152号,上海市徐汇区华发路152号,121.452575,31.127124,121.447999,31.12906657,华泾镇
徐汇区,华发路180弄,上海市徐汇区华发路180弄,121.450891,31.128504,121.4463107,31.13044229,华泾镇
徐汇区,华发路58弄,上海市徐汇区华发路58弄,121.452788,31.129171,121.4482124,31.13111292,华泾镇
徐汇区,华发路99弄,上海市徐汇区华发路99弄,121.453731,31.125658,121.4491581,31.12760385,华泾镇
徐汇区,馨宁公寓,上海市徐汇区馨宁公寓,121.447726,31.128049,121.4431381,31.12998118,华泾镇
徐汇区,华济路28弄,上海市徐汇区华济路28弄,121.458994,31.116125,121.4544361,31.1180879,华泾镇
徐汇区,华济路2弄,上海市徐汇区华济路2弄,121.462199,31.116456,121.4576502,31.11842637,华泾镇
徐汇区,华泾路999弄,上海市徐汇区华泾路999弄,121.446149,31.116152,121.4415585,31.11808761,华泾镇
徐汇区,老沪闵路1290弄,上海市徐汇区老沪闵路1290弄,121.439976,31.120929,121.435372,31.12285105,华泾镇
徐汇区,老沪闵路1296弄,上海市徐汇区老沪闵路1296弄,121.439902,31.120576,121.4352979,31.12249812,华泾镇
徐汇区,华建小区,上海市徐汇区华建小区,121.434853,31.131474,121.4302386,31.13338242,凌云路街道
徐汇区,龙吴路2388弄,上海市徐汇区龙吴路2388弄,121.458912,31.122769,121.4543533,31.12472809,华泾镇
徐汇区,龙吴路2418弄,上海市徐汇区龙吴路2418弄,121.460936,31.11959,121.4563833,31.12155561,华泾镇
徐汇区,龙吴路2588弄,上海市徐汇区龙吴路2588弄,121.457386,31.114427,121.4528238,31.11638711,华泾镇
徐汇区,龙吟路455弄,上海市徐汇区龙吟路455弄,121.453802,31.113465,121.4492303,31.11541765,华泾镇
徐汇区,宛南五村,上海市徐汇区宛南五村,121.448348,31.180741,121.443757,31.18264685,枫林路街道
徐汇区,百花街345弄,上海市徐汇区百花街345弄,121.415381,31.145819,121.4107416,31.14769998,康健新村街道
徐汇区,百花街350号,上海市徐汇区百花街350号,121.414112,31.14609,121.4094717,31.14797014,康健新村街道
徐汇区,冠生园路403弄,上海市徐汇区冠生园路403弄,121.424058,31.162282,121.4194253,31.16416111,康健新村街道
徐汇区,桂江路77弄,上海市徐汇区桂江路77弄,121.413372,31.144038,121.4087315,31.14591885,康健新村街道
徐汇区,桂林西街111弄,上海市徐汇区桂林西街111弄,121.419712,31.151445,121.4150757,31.15332596,康健新村街道
徐汇区,桂林西街151弄,上海市徐汇区桂林西街151弄,121.421112,31.151814,121.416477,31.1536959,康健新村街道
徐汇区,桂林西街201弄,上海市徐汇区桂林西街201弄,121.422125,31.15319,121.4174909,31.15507205,康健新村街道
徐汇区,桂林西街47弄,上海市徐汇区桂林西街47弄,121.416715,31.154118,121.4120759,31.15599543,康健新村街道
徐汇区,桂林西街9弄,上海市徐汇区桂林西街9弄,121.419885,31.156769,121.4152484,31.15864731,康健新村街道
徐汇区,桂平路188号,上海市徐汇区桂平路188号,121.411689,31.151661,121.4070469,31.15353707,康健新村街道
徐汇区,桂平路257弄,上海市徐汇区桂平路257弄,121.408011,31.157604,121.4033668,31.15947574,康健新村街道
徐汇区,桂平路258弄,上海市徐汇区桂平路258弄,121.408754,31.157264,121.4041101,31.15913611,康健新村街道
徐汇区,桂林西街400弄,上海市徐汇区桂林西街400弄,121.421704,31.153818,121.4170694,31.15569935,康健新村街道
徐汇区,康健路363弄,上海市徐汇区康健路363弄,121.419496,31.164889,121.4148583,31.1667628,康健新村街道
徐汇区,罗城路570弄,上海市徐汇区罗城路570弄,121.43798,31.150262,121.4333696,31.15216513,漕河泾街道
徐汇区,浦北路959弄,上海市徐汇区浦北路959弄,121.413764,31.151115,121.4091231,31.15299231,康健新村街道
徐汇区,钦州南路300弄,上海市徐汇区钦州南路300弄,121.424133,31.160713,121.4195005,31.162593,康健新村街道
徐汇区,钦州南路381弄,上海市徐汇区钦州南路381弄,121.425412,31.158559,121.4207813,31.1604414,康健新村街道
徐汇区,钦州南路917弄,上海市徐汇区钦州南路917弄,121.412937,31.155429,121.4082952,31.15730365,康健新村街道
徐汇区,虹梅南路96弄,上海市徐汇区虹梅南路96弄,121.41635,31.14188,121.4117117,31.14376366,凌云路街道
徐汇区,老沪闵路333弄,上海市徐汇区老沪闵路333弄,121.425327,31.148417,121.420697,31.15030462,凌云路街道
徐汇区,罗秀路717弄,上海市徐汇区罗秀路717弄,121.43492,31.13129,121.4303057,31.13319861,凌云路街道
徐汇区,罗秀路850弄,上海市徐汇区罗秀路850弄,121.432968,31.131603,121.4283504,31.13350871,凌云路街道
徐汇区,罗秀路930弄,上海市徐汇区罗秀路930弄,121.43015,31.131027,121.4255281,31.13292936,凌云路街道
徐汇区,梅陇九村,上海市徐汇区梅陇九村,121.420854,31.13867,121.4162199,31.14055864,凌云路街道
徐汇区,梅陇路130号,上海市徐汇区梅陇路130号,121.42501,31.143139,121.4203801,31.14502909,凌云路街道
徐汇区,梅陇三村,上海市徐汇区梅陇三村,121.41758,31.13574,121.4129432,31.13762774,凌云路街道
徐汇区,梅陇五村,上海市徐汇区梅陇五村,121.422401,31.134981,121.4177688,31.13687295,凌云路街道
徐汇区,上中西路55弄,上海市徐汇区上中西路55弄,121.431013,31.135173,121.426392,31.13707421,凌云路街道
徐汇区,丰谷路225弄,上海市徐汇区丰谷路225弄,121.455282,31.167821,121.4507095,31.16974798,龙华街道
徐汇区,机场新村,上海市徐汇区机场新村,121.450483,31.166631,121.4458984,31.16854834,龙华街道
徐汇区,滨江小区,上海市徐汇区滨江小区,121.457024,31.15248,121.4524575,31.15441886,龙华街道
徐汇区,龙华西路21弄,上海市徐汇区龙华西路21弄,121.449848,31.168365,121.4452617,31.17028015,龙华街道
徐汇区,龙南七村,上海市徐汇区龙南七村,121.453122,31.158329,121.4485447,31.16025618,龙华街道
徐汇区,龙南三村,上海市徐汇区龙南三村,121.457193,31.155648,121.4526267,31.15758559,龙华街道
徐汇区,龙南四村,上海市徐汇区龙南四村,121.455813,31.154413,121.4512431,31.15634812,龙华街道
徐汇区,龙南五村,上海市徐汇区龙南五村,121.454027,31.15521,121.4494523,31.15714076,龙华街道
徐汇区,龙水南路358弄,上海市徐汇区龙水南路358弄,121.452596,31.152813,121.4480178,31.15474193,龙华街道
徐汇区,天钥桥南路1249弄,上海市徐汇区天钥桥南路1249弄,121.457862,31.151855,121.4532979,31.15379611,龙华街道
徐汇区,长峰小区,上海市徐汇区长峰小区,121.454997,31.15275,121.4504251,31.15468417,龙华街道
徐汇区,天平路208弄,上海市徐汇区天平路208弄,121.437444,31.200068,121.4328283,31.201945,天平路街道
徐汇区,岳阳路77弄,上海市徐汇区岳阳路77弄,121.453916,31.207645,121.4493365,31.20954914,天平路街道
徐汇区,钦州路920号,上海市徐汇区钦州路920号,121.426322,31.177966,121.4216907,31.17983939,田林街道
徐汇区,田林二村,上海市徐汇区田林二村,121.420094,31.170185,121.4154564,31.17205654,田林街道
徐汇区,田林六村,上海市徐汇区田林六村,121.420415,31.172624,121.4157775,31.17449455,田林街道
徐汇区,田林三村,上海市徐汇区田林三村,121.42213,31.17026,121.4174945,31.17213321,田林街道
徐汇区,宜山路701弄,上海市徐汇区宜山路701弄,121.419162,31.17266,121.4145233,31.17452956,田林街道
徐汇区,茶陵北路5号,上海市徐汇区茶陵北路5号,121.465242,31.198887,121.4606951,31.20082205,斜土路街道
徐汇区,茶陵路337号,上海市徐汇区茶陵路|337号,121.464331,31.19776,121.4597815,31.19969332,斜土路街道
徐汇区,斜土路1422弄,上海市徐汇区斜土路1422弄,121.461593,31.197516,121.4570354,31.19944271,斜土路街道
徐汇区,清真路65号,上海市徐汇区清真路65号,121.459557,31.199335,121.4549935,31.20125596,斜土路街道
徐汇区,斜土路1212弄,上海市徐汇区斜土路1212弄,121.465999,31.199623,121.4614543,31.2015596,斜土路街道
徐汇区,炎虹路76弄,上海市徐汇区炎虹路76弄,121.464781,31.202676,121.4602324,31.20460804,斜土路街道
徐汇区,肇嘉浜路193弄,上海市徐汇区肇嘉浜路193弄,121.465366,31.201525,121.4608192,31.20345907,斜土路街道
徐汇区,零陵路663号,上海市徐汇区零陵路663号,121.444728,31.186708,121.4401282,31.18860395,徐家汇街道
徐汇区,天钥桥路380弄,上海市徐汇区天钥桥路380弄,121.439853,31.188076,121.4352429,31.18996277,徐家汇街道
徐汇区,宛平南路144弄,上海市徐汇区宛平南路144弄,121.444852,31.194189,121.4402519,31.19608147,徐家汇街道
徐汇区,王家堂小区,上海市徐汇区王家堂小区,121.444392,31.189439,121.4397913,31.19133297,徐家汇街道
徐汇区,斜土路2701号,上海市徐汇区斜土路2701号,121.44208,31.18546,121.4374747,31.18735184,徐家汇街道
徐汇区,裕德路92弄,上海市徐汇区裕德路92弄,121.434808,31.184569,121.4301889,31.18644973,徐家汇街道
徐汇区,老沪闵路790弄,上海市徐汇区老沪闵路790弄,121.432813,31.14037,121.4281944,31.14227081,长桥街道
徐汇区,汇成二村,上海市徐汇区汇成二村,121.435317,31.145812,121.4307022,31.14771344,长桥街道
徐汇区,汇成三村,上海市徐汇区汇成三村,121.433943,31.144032,121.429326,31.14593242,长桥街道
徐汇区,老沪闵路728弄,上海市徐汇区老沪闵路728弄,121.430246,31.143076,121.4256232,31.14497203,长桥街道
徐汇区,龙川北路601号,上海市徐汇区龙川北路,121.440021,31.140683,121.4354154,31.14259449,长桥街道
徐汇区,龙吴路1343弄,上海市徐汇区龙吴路1343弄,121.450089,31.137071,121.445506,31.13900304,长桥街道
徐汇区,罗香路90号,上海市徐汇区罗香路90号,121.440417,31.135828,121.4358126,31.13774274,长桥街道
徐汇区,罗秀二村,上海市徐汇区罗秀二村,121.447867,31.132118,121.4432791,31.13404826,长桥街道
徐汇区,罗秀新村,上海市徐汇区罗秀新村,121.447867,31.132118,121.4432791,31.13404826,长桥街道
徐汇区,罗秀三村,上海市徐汇区罗秀三村,121.4466,31.134198,121.442009,31.13612469,长桥街道
徐汇区,星秀苑,上海市徐汇区星秀苑,121.43599,31.132831,121.4313775,31.13474035,长桥街道
徐汇区,园南二村,上海市徐汇区园南二村,121.442869,31.14109,121.4382692,31.14300614,长桥街道
徐汇区,长桥二村,上海市徐汇区长桥二村,121.442302,31.137378,121.4377013,31.13929513,长桥街道
徐汇区,长桥五村,上海市徐汇区长桥五村,121.439057,31.138139,121.4344497,31.14005027,长桥街道
徐汇区,冠生园路237弄,上海市徐汇区冠生园路237弄,121.426219,31.161404,121.421589,31.16328577,漕河泾街道
徐汇区,三江小区,上海市徐汇区三江小区,121.44,31.164716,121.4353923,31.16661485,漕河泾街道
徐汇区,龙华路2373弄,上海市徐汇区龙华路2373弄,121.452287,31.181675,121.4477056,31.18358844,枫林路街道
徐汇区,斜土路2364号,上海市徐汇区斜土路2364号,121.447942,31.191824,121.4433491,31.19372351,枫林路街道
徐汇区,中山南二路945弄,上海市徐汇区中山南二路945弄,121.450605,31.184268,121.4460191,31.18617663,枫林路街道
徐汇区,古美小区,上海市徐汇区古美小区,121.398773,31.155028,121.3941284,31.15690066,虹梅路街道
徐汇区,华发路100弄,上海市徐汇区华发路100弄,121.45282,31.127984,121.4482445,31.12992663,华泾镇
徐汇区,华发路90弄,上海市徐汇区华发路90弄,121.453428,31.127151,121.4488542,31.12909539,华泾镇
徐汇区,龙吴路2525弄,上海市徐汇区龙吴路2525弄,121.454567,31.115053,121.4499972,31.11700645,华泾镇
徐汇区,桂林东街150弄,上海市徐汇区桂林东街150弄,121.424022,31.157133,121.4193897,31.15901475,康健新村街道
徐汇区,江安路55弄,上海市徐汇区江安路55弄,121.41519,31.149258,121.4105502,31.15113706,康健新村街道
徐汇区,凌云新村,上海市徐汇区凌云新村,121.418078,31.141628,121.4134411,31.14351294,凌云路街道
徐汇区,梅陇十一村,上海市徐汇区梅陇十一村,121.427352,31.132682,121.422726,31.13458017,凌云路街道
徐汇区,梅陇路279号,上海市徐汇区梅陇路279号,121.420732,31.13888,121.4160978,31.14076843,凌云路街道
徐汇区,天等路259弄,上海市徐汇区天等路259弄,121.427223,31.135817,121.4225966,31.13771334,凌云路街道
徐汇区,龙华西路285弄,上海市徐汇区龙华西路285弄,121.446141,31.172499,121.4415456,31.17440476,龙华街道
徐汇区,龙华西路31弄,上海市徐汇区龙华西路31弄,121.450187,31.169033,121.4456014,31.1709485,龙华街道
徐汇区,龙水北路960弄,上海市徐汇区龙水北路960弄,121.447177,31.172012,121.442584,31.17391999,龙华街道
徐汇区,云锦路50弄,上海市徐汇区云锦路50弄,121.456407,31.17454,121.4518369,31.17646607,龙华街道
徐汇区,云锦路701号,上海市徐汇区云锦路701号,121.459877,31.163185,121.4553175,31.16512491,龙华街道
徐汇区,田林十四村,上海市徐汇区田林十四村,121.42349,31.175573,121.4188555,31.17744475,田林街道
徐汇区,漕宝路77弄,上海市徐汇区漕宝路77弄,121.428188,31.169299,121.42356,31.17117888,田林街道
徐汇区,田林路65弄,上海市徐汇区田林路65弄,121.420154,31.17032,121.4155165,31.17219152,田林街道
徐汇区,田林七村,上海市徐汇区田林七村,121.419717,31.173018,121.4150788,31.1748878,田林街道
徐汇区,徐虹中路19号,上海市徐汇区徐虹中路19号,121.426215,31.187555,121.4215828,31.18942346,田林街道
徐汇区,茶陵路223号,上海市徐汇区茶陵路223号,121.466797,31.198001,121.4622549,31.19994043,斜土路街道
徐汇区,江南二村,上海市徐汇区江南二村,121.46241,31.19219,121.4578553,31.19412132,斜土路街道
徐汇区,零陵路60号,上海市徐汇区零陵路60号,121.466449,31.194667,121.4619061,31.19660718,斜土路街道
徐汇区,日晖七村,上海市徐汇区日晖七村,121.459264,31.197549,121.4546998,31.19947015,斜土路街道
徐汇区,虹二小区,上海市徐汇区虹二小区,121.425335,31.195608,121.4207009,31.19747155,徐家汇街道
徐汇区,凯旋一村,上海市徐汇区凯旋一村,121.424595,31.193372,121.4199602,31.19523591,徐家汇街道
徐汇区,零陵路631号,上海市徐汇区零陵路631号,121.44647,31.188,121.441874,31.18989857,徐家汇街道
徐汇区,零陵路789弄,上海市徐汇区零陵路789弄,121.438891,31.185122,121.4342793,31.18700867,徐家汇街道
徐汇区,南丹路368弄,上海市徐汇区南丹路368弄,121.427818,31.191403,121.4231875,31.19327132,徐家汇街道
徐汇区,汇成一村,上海市徐汇区汇成一村,121.432129,31.146969,121.4275088,31.14886539,长桥街道
